{"type":"FeatureCollection","features":[{"type":"Feature","properties":{"geo":{"name":"Salle municipale Bretagne"},"_l":[47.2274064964909,-1.5648248558118],"LIBTHEME":"VIE SOCIALE","CODE_POSTAL":44000,"WEB":"www.nantes.fr","STATUT":null,"TELEPHONE":"02 51 81 91 10","THEME":12,"COMMUNE":"NANTES","LIBCATEGORIE":"Vie associative","ADRESSE":"23 Rue Villebois Mareuil","LIBTYPE":"Salle associative","_IDOBJ":139,"TYPE":120503,"CATEGORIE":1205},"geometry":{"type":"Point","coordinates":[-1.5648248558118,47.2274064964909]}},{"type":"Feature","properties":{"geo":{"name":"Salles municipales La Manu"},"_l":[47.2194356171357,-1.53561203124214],"LIBTHEME":"VIE SOCIALE","CODE_POSTAL":44000,"WEB":"www.nantes.fr","STATUT":"Public","TELEPHONE":"02 40 41 92 25","THEME":12,"COMMUNE":"NANTES","LIBCATEGORIE":"Vie associative","ADRESSE":"10B Boulevard de Stalingrad","LIBTYPE":"Salle associative","_IDOBJ":208,"TYPE":120503,"CATEGORIE":1205},"geometry":{"type":"Point","coordinates":[-1.53561203124214,47.2194356171357]}},{"type":"Feature","properties":{"geo":{"name":"Maison des Syndicats"},"_l":[47.2041839844718,-1.5593673745787],"LIBTHEME":"VIE SOCIALE","CODE_POSTAL":44200,"WEB":"www.nantes.fr","STATUT":null,"TELEPHONE":"02 40 35 42 06","THEME":12,"COMMUNE":"NANTES","LIBCATEGORIE":"Vie associative","ADRESSE":"5 Place de la Gare de l'Etat","LIBTYPE":"Salle associative","_IDOBJ":269,"TYPE":120503,"CATEGORIE":1205},"geometry":{"type":"Point","coordinates":[-1.5593673745787,47.2041839844718]}},{"type":"Feature","properties":{"geo":{"name":"Multi-accueil Petite Enfance Brin de Malice"},"_l":[47.1929795062468,-1.53148768762721],"LIBTHEME":"VIE SOCIALE","CODE_POSTAL":44200,"WEB":null,"STATUT":"Municipal","TELEPHONE":"02 40 75 14 46","THEME":12,"COMMUNE":"NANTES","LIBCATEGORIE":"Petite enfance","ADRESSE":"19 Rue de la Ripossière","LIBTYPE":"Multi-accueil (Crèche)","_IDOBJ":310,"TYPE":120101,"CATEGORIE":1201},"geometry":{"type":"Point","coordinates":[-1.53148768762721,47.1929795062468]}},{"type":"Feature","properties":{"geo":{"name":"Multi-Accueil Petite Enfance Chêne des Anglais"},"_l":[47.2592383404178,-1.57290311521737],"LIBTHEME":"VIE SOCIALE","CODE_POSTAL":44300,"WEB":null,"STATUT":"Municipal","TELEPHONE":"02 40 59 29 40","THEME":12,"COMMUNE":"NANTES","LIBCATEGORIE":"Petite enfance","ADRESSE":"7T Rue Jacques Cartier","LIBTYPE":"Multi-accueil (Crèche)","_IDOBJ":313,"TYPE":120101,"CATEGORIE":1201},"geometry":{"type":"Point","coordinates":[-1.57290311521737,47.2592383404178]}},{"type":"Feature","properties":{"geo":{"name":"Multi-accueil Petite Enfance Vanille Chocolat"},"_l":[47.2588377029637,-1.57567976677586],"LIBTHEME":"VIE SOCIALE","CODE_POSTAL":44300,"WEB":null,"STATUT":"Municipal","TELEPHONE":"02 40 40 94 63","THEME":12,"COMMUNE":"NANTES","LIBCATEGORIE":"Petite enfance","ADRESSE":"71 Route de la Chapelle Sur Erdre","LIBTYPE":"Multi-accueil (Crèche)","_IDOBJ":314,"TYPE":120101,"CATEGORIE":1201},"geometry":{"type":"Point","coordinates":[-1.57567976677586,47.2588377029637]}},{"type":"Feature","properties":{"geo":{"name":"Multi-Accueil Petite Enfance Antenne Bout des Landes"},"_l":[47.2660211160484,-1.57827522777234],"LIBTHEME":"VIE SOCIALE","CODE_POSTAL":44300,"WEB":null,"STATUT":"Municipal","TELEPHONE":"02 40 40 53 09","THEME":12,"COMMUNE":"NANTES","LIBCATEGORIE":"Petite enfance","ADRESSE":"12 Rue de Concarneau","LIBTYPE":"Multi-accueil (Crèche)","_IDOBJ":315,"TYPE":120101,"CATEGORIE":1201},"geometry":{"type":"Point","coordinates":[-1.57827522777234,47.2660211160484]}},{"type":"Feature","properties":{"geo":{"name":"Antenne Perray"},"_l":[47.2470571240377,-1.51287855586169],"LIBTHEME":"VIE SOCIALE","CODE_POSTAL":44300,"WEB":null,"STATUT":"Municipal","TELEPHONE":"02 40 50 63 69","THEME":12,"COMMUNE":"NANTES","LIBCATEGORIE":"Petite enfance","ADRESSE":"7 Rue Frédéric Mistral","LIBTYPE":"Multi-accueil (Crèche)","_IDOBJ":316,"TYPE":120101,"CATEGORIE":1201},"geometry":{"type":"Point","coordinates":[-1.51287855586169,47.2470571240377]}},{"type":"Feature","properties":{"geo":{"name":"Multi-accueil Petite Enfance Halvêque"},"_l":[47.25638006687,-1.51965875672833],"LIBTHEME":"VIE SOCIALE","CODE_POSTAL":44300,"WEB":null,"STATUT":"Municipal","TELEPHONE":"02 40 49 68 16","THEME":12,"COMMUNE":"NANTES","LIBCATEGORIE":"Petite enfance","ADRESSE":"3B Square Bernard Lijot","LIBTYPE":"Multi-accueil (Crèche)","_IDOBJ":318,"TYPE":120101,"CATEGORIE":1201},"geometry":{"type":"Point","coordinates":[-1.51965875672833,47.25638006687]}},{"type":"Feature","properties":{"geo":{"name":"Antenne Eiffel"},"_l":[47.2570467506587,-1.51946143364092],"LIBTHEME":"VIE SOCIALE","CODE_POSTAL":44300,"WEB":null,"STATUT":"Municipal","TELEPHONE":"02 40 68 97 44","THEME":12,"COMMUNE":"NANTES","LIBCATEGORIE":"Petite enfance","ADRESSE":"15 Rue Gustave Eiffel","LIBTYPE":"Multi-accueil (Crèche)","_IDOBJ":319,"TYPE":120101,"CATEGORIE":1201},"geometry":{"type":"Point","coordinates":[-1.51946143364092,47.2570467506587]}},{"type":"Feature","properties":{"geo":{"name":"Multi-accueil Petite Enfance Saint Joseph de Porterie"},"_l":[47.2693946205413,-1.51941400246505],"LIBTHEME":"VIE SOCIALE","CODE_POSTAL":44300,"WEB":null,"STATUT":"Municipal","TELEPHONE":"02 40 30 36 48","THEME":12,"COMMUNE":"NANTES","LIBCATEGORIE":"Petite enfance","ADRESSE":"6B Rue du Bêle","LIBTYPE":"Multi-accueil (Crèche)","_IDOBJ":320,"TYPE":120101,"CATEGORIE":1201},"geometry":{"type":"Point","coordinates":[-1.51941400246505,47.2693946205413]}},{"type":"Feature","properties":{"geo":{"name":"Multi-Accueil Petite Enfance Breil Malville"},"_l":[47.2301541243137,-1.58683665443202],"LIBTHEME":"VIE SOCIALE","CODE_POSTAL":44100,"WEB":null,"STATUT":"Municipal","TELEPHONE":"02 40 76 84 80","THEME":12,"COMMUNE":"NANTES","LIBCATEGORIE":"Petite enfance","ADRESSE":"49 Rue de la Maison Blanche","LIBTYPE":"Multi-accueil (Crèche)","_IDOBJ":323,"TYPE":120101,"CATEGORIE":1201},"geometry":{"type":"Point","coordinates":[-1.58683665443202,47.2301541243137]}},{"type":"Feature","properties":{"geo":{"name":"Multi-acuueil Petite Enfance Les 5 Continents"},"_l":[47.2079967004208,-1.60541100870177],"LIBTHEME":"VIE SOCIALE","CODE_POSTAL":44100,"WEB":null,"STATUT":"Municipal","TELEPHONE":"02 40 95 09 05","THEME":12,"COMMUNE":"NANTES","LIBCATEGORIE":"Petite enfance","ADRESSE":"Rue du Jamet","LIBTYPE":"Multi-accueil (Crèche)","_IDOBJ":327,"TYPE":120101,"CATEGORIE":1201},"geometry":{"type":"Point","coordinates":[-1.60541100870177,47.2079967004208]}},{"type":"Feature","properties":{"geo":{"name":"Multi-accueil Petite Enfance Bellevue"},"_l":[47.2053569981868,-1.60746139342821],"LIBTHEME":"VIE SOCIALE","CODE_POSTAL":44100,"WEB":null,"STATUT":"Municipal","TELEPHONE":"02 40 46 92 06","THEME":12,"COMMUNE":"NANTES","LIBCATEGORIE":"Petite enfance","ADRESSE":"2 Rue Etienne Coutan","LIBTYPE":"Multi-accueil (Crèche)","_IDOBJ":328,"TYPE":120101,"CATEGORIE":1201},"geometry":{"type":"Point","coordinates":[-1.60746139342821,47.2053569981868]}},{"type":"Feature","properties":{"geo":{"name":"Multi-accueil Petite Enfance Manufacture"},"_l":[47.2198919121811,-1.53754701692096],"LIBTHEME":"VIE SOCIALE","CODE_POSTAL":44000,"WEB":null,"STATUT":"Municipal","TELEPHONE":"02 40 93 32 20","THEME":12,"COMMUNE":"NANTES","LIBCATEGORIE":"Petite enfance","ADRESSE":"1 Cour Jules Durand","LIBTYPE":"Multi-accueil (Crèche)","_IDOBJ":329,"TYPE":120101,"CATEGORIE":1201},"geometry":{"type":"Point","coordinates":[-1.53754701692096,47.2198919121811]}},{"type":"Feature","properties":{"geo":{"name":"Multi-accueil Petite Enfance Michelet"},"_l":[47.2324550349689,-1.55593917720202],"LIBTHEME":"VIE SOCIALE","CODE_POSTAL":44000,"WEB":null,"STATUT":"Municipal","TELEPHONE":"02 40 74 25 87","THEME":12,"COMMUNE":"NANTES","LIBCATEGORIE":"Petite enfance","ADRESSE":"12 Boulevard Michelet","LIBTYPE":"Multi-accueil (Crèche)","_IDOBJ":331,"TYPE":120101,"CATEGORIE":1201},"geometry":{"type":"Point","coordinates":[-1.55593917720202,47.2324550349689]}},{"type":"Feature","properties":{"geo":{"name":"Multi-accueil Le Petit Oranger"},"_l":[47.2199983703959,-1.56086005152673],"LIBTHEME":"VIE SOCIALE","CODE_POSTAL":44000,"WEB":null,"STATUT":"Non Municipal","TELEPHONE":"02 40 20 81 21","THEME":12,"COMMUNE":"NANTES","LIBCATEGORIE":"Petite enfance","ADRESSE":"2 Place du Martray","LIBTYPE":"Multi-accueil (Crèche)","_IDOBJ":334,"TYPE":120101,"CATEGORIE":1201},"geometry":{"type":"Point","coordinates":[-1.56086005152673,47.2199983703959]}},{"type":"Feature","properties":{"geo":{"name":"Multi-accueil Antenne Graslin"},"_l":[47.2143259653884,-1.5628941832334],"LIBTHEME":"VIE SOCIALE","CODE_POSTAL":44000,"WEB":null,"STATUT":"Municipal","TELEPHONE":"02 40 73 13 78","THEME":12,"COMMUNE":"NANTES","LIBCATEGORIE":"Petite enfance","ADRESSE":"1 Rue Lekain","LIBTYPE":"Multi-accueil (Crèche)","_IDOBJ":336,"TYPE":120101,"CATEGORIE":1201},"geometry":{"type":"Point","coordinates":[-1.5628941832334,47.2143259653884]}},{"type":"Feature","properties":{"geo":{"name":"Multi-accueil Petite Enfance Médiathèque"},"_l":[47.21133517479,-1.56221972881137],"LIBTHEME":"VIE SOCIALE","CODE_POSTAL":44000,"WEB":null,"STATUT":"Municipal","TELEPHONE":"02 40 69 14 76","THEME":12,"COMMUNE":"NANTES","LIBCATEGORIE":"Petite enfance","ADRESSE":"15 Rue de l'Héronnière","LIBTYPE":"Multi-accueil (Crèche)","_IDOBJ":338,"TYPE":120101,"CATEGORIE":1201},"geometry":{"type":"Point","coordinates":[-1.56221972881137,47.21133517479]}},{"type":"Feature","properties":{"geo":{"name":"Multi-accueil Petite Enfance Le Jardin de Jules Verne"},"_l":[47.1991004683171,-1.59158741875174],"LIBTHEME":"VIE SOCIALE","CODE_POSTAL":44100,"WEB":null,"STATUT":"Municipal","TELEPHONE":"02 40 46 57 22","THEME":12,"COMMUNE":"NANTES","LIBCATEGORIE":"Petite enfance","ADRESSE":"19 Rue des Réformes","LIBTYPE":"Multi-accueil (Crèche)","_IDOBJ":342,"TYPE":120101,"CATEGORIE":1201},"geometry":{"type":"Point","coordinates":[-1.59158741875174,47.1991004683171]}},{"type":"Feature","properties":{"geo":{"name":"Maison de quartier Doulon - ACCOORD"},"_l":[47.2369290334161,-1.50937191689927],"LIBTHEME":"VIE SOCIALE","CODE_POSTAL":44300,"WEB":null,"STATUT":null,"TELEPHONE":"02 40 50 60 40","THEME":12,"COMMUNE":"NANTES","LIBCATEGORIE":"Vie associative","ADRESSE":"1 Rue de la Basse Chénaie","LIBTYPE":"Maison de quartier","_IDOBJ":343,"TYPE":120504,"CATEGORIE":1205},"geometry":{"type":"Point","coordinates":[-1.50937191689927,47.2369290334161]}},{"type":"Feature","properties":{"geo":{"name":"Multi-accueil Petite Enfance Bottière"},"_l":[47.2381358265621,-1.5200668645194],"LIBTHEME":"VIE SOCIALE","CODE_POSTAL":44300,"WEB":null,"STATUT":"Municipal","TELEPHONE":"02 40 49 67 49","THEME":12,"COMMUNE":"NANTES","LIBCATEGORIE":"Petite enfance","ADRESSE":"2 Rue Gabriel Lippmann","LIBTYPE":"Multi-accueil (Crèche)","_IDOBJ":344,"TYPE":120101,"CATEGORIE":1201},"geometry":{"type":"Point","coordinates":[-1.5200668645194,47.2381358265621]}},{"type":"Feature","properties":{"geo":{"name":"Multi-accueil Petite Enfance Malakoff"},"_l":[47.215891473218,-1.52258934820818],"LIBTHEME":"VIE SOCIALE","CODE_POSTAL":44000,"WEB":null,"STATUT":"Municipal","TELEPHONE":"02 40 35 40 18","THEME":12,"COMMUNE":"NANTES","LIBCATEGORIE":"Petite enfance","ADRESSE":"3 Rue de Chypre","LIBTYPE":"Multi-accueil (Crèche)","_IDOBJ":345,"TYPE":120101,"CATEGORIE":1201},"geometry":{"type":"Point","coordinates":[-1.52258934820818,47.215891473218]}},{"type":"Feature","properties":{"geo":{"name":"Etablissement d'Hébergement pour Personnes Agées Dépendantes Haute Mitrie"},"_l":[47.2314888552314,-1.52508086036477],"LIBTHEME":"VIE SOCIALE","CODE_POSTAL":44300,"WEB":null,"STATUT":"Public","TELEPHONE":"02 40 52 27 92","THEME":12,"COMMUNE":"NANTES","LIBCATEGORIE":"Personne agée","ADRESSE":"13 Rue de la Haute Mitrie","LIBTYPE":"Maison de retraite","_IDOBJ":346,"TYPE":120403,"CATEGORIE":1204},"geometry":{"type":"Point","coordinates":[-1.52508086036477,47.2314888552314]}},{"type":"Feature","properties":{"geo":{"name":"Etablissement d'Hébergement pour Personnes Agées Dépendantes Chambellan"},"_l":[47.237468790031,-1.50324523671326],"LIBTHEME":"VIE SOCIALE","CODE_POSTAL":44300,"WEB":null,"STATUT":"Public","TELEPHONE":"02 40 49 63 11","THEME":12,"COMMUNE":"NANTES","LIBCATEGORIE":"Personne agée","ADRESSE":"7 Rue de Chambellan","LIBTYPE":"Maison de retraite","_IDOBJ":347,"TYPE":120403,"CATEGORIE":1204},"geometry":{"type":"Point","coordinates":[-1.50324523671326,47.237468790031]}},{"type":"Feature","properties":{"geo":{"name":"Foyer Logement Sylvain Royé"},"_l":[47.2030246309407,-1.59037784911182],"LIBTHEME":"VIE SOCIALE","CODE_POSTAL":44100,"WEB":null,"STATUT":"Public","TELEPHONE":"02 40 46 46 39","THEME":12,"COMMUNE":"NANTES","LIBCATEGORIE":"Personne agée","ADRESSE":"8 Rue Sylvain Roye","LIBTYPE":"Logement","_IDOBJ":348,"TYPE":120402,"CATEGORIE":1204},"geometry":{"type":"Point","coordinates":[-1.59037784911182,47.2030246309407]}},{"type":"Feature","properties":{"geo":{"name":"Etablissement d'Hébergement pour Personnes Agées Dépendantes Fonteny"},"_l":[47.2042809626785,-1.59229285590973],"LIBTHEME":"VIE SOCIALE","CODE_POSTAL":44100,"WEB":null,"STATUT":"Public","TELEPHONE":"02 40 92 75 70","THEME":12,"COMMUNE":"NANTES","LIBCATEGORIE":"Personne agée","ADRESSE":"27 Rue du Fonteny","LIBTYPE":"Maison de retraite","_IDOBJ":349,"TYPE":120403,"CATEGORIE":1204},"geometry":{"type":"Point","coordinates":[-1.59229285590973,47.2042809626785]}},{"type":"Feature","properties":{"geo":{"name":"Foyer Logement Malville"},"_l":[47.2322877119109,-1.58217460399747],"LIBTHEME":"VIE SOCIALE","CODE_POSTAL":44100,"WEB":null,"STATUT":"Public","TELEPHONE":"02 40 76 95 77","THEME":12,"COMMUNE":"NANTES","LIBCATEGORIE":"Personne agée","ADRESSE":"29 Rue de Malville","LIBTYPE":"Logement","_IDOBJ":350,"TYPE":120402,"CATEGORIE":1204},"geometry":{"type":"Point","coordinates":[-1.58217460399747,47.2322877119109]}},{"type":"Feature","properties":{"geo":{"name":"Maison de Retraite Résidence Notre Dame de Charité"},"_l":[47.213965231838,-1.57068195412916],"LIBTHEME":"VIE SOCIALE","CODE_POSTAL":44100,"WEB":null,"STATUT":"Privé","TELEPHONE":"02 40 73 83 26","THEME":12,"COMMUNE":"NANTES","LIBCATEGORIE":"Personne agée","ADRESSE":"13 Rue de Gigant","LIBTYPE":"Maison de retraite","_IDOBJ":352,"TYPE":120403,"CATEGORIE":1204},"geometry":{"type":"Point","coordinates":[-1.57068195412916,47.213965231838]}},{"type":"Feature","properties":{"geo":{"name":"Etablissement d'Hébergement pour Personnes Agées Dépendantes Bréa"},"_l":[47.2109463765701,-1.56566815768483],"LIBTHEME":"VIE SOCIALE","CODE_POSTAL":44000,"WEB":null,"STATUT":"Public","TELEPHONE":"02 40 73 41 83","THEME":12,"COMMUNE":"NANTES","LIBCATEGORIE":"Personne agée","ADRESSE":"9 Rue de Bréa","LIBTYPE":"Maison de retraite","_IDOBJ":353,"TYPE":120403,"CATEGORIE":1204},"geometry":{"type":"Point","coordinates":[-1.56566815768483,47.2109463765701]}},{"type":"Feature","properties":{"geo":{"name":"Maison de Retraite Résidence l'Espérance"},"_l":[47.2204850262631,-1.56479498864783],"LIBTHEME":"VIE SOCIALE","CODE_POSTAL":44000,"WEB":null,"STATUT":"Privé","TELEPHONE":"02 72 01 54 00","THEME":12,"COMMUNE":"NANTES","LIBCATEGORIE":"Personne agée","ADRESSE":"9 Rue Félibien","LIBTYPE":"Maison de retraite","_IDOBJ":354,"TYPE":120403,"CATEGORIE":1204},"geometry":{"type":"Point","coordinates":[-1.56479498864783,47.2204850262631]}},{"type":"Feature","properties":{"geo":{"name":"Maison de Retraite Résidence Richebourg"},"_l":[47.2172919394832,-1.54666410639287],"LIBTHEME":"VIE SOCIALE","CODE_POSTAL":44000,"WEB":null,"STATUT":"Privé","TELEPHONE":"02 40 37 93 94","THEME":12,"COMMUNE":"NANTES","LIBCATEGORIE":"Personne agée","ADRESSE":"40 Rue de Richebourg","LIBTYPE":"Maison de retraite","_IDOBJ":356,"TYPE":120403,"CATEGORIE":1204},"geometry":{"type":"Point","coordinates":[-1.54666410639287,47.2172919394832]}},{"type":"Feature","properties":{"geo":{"name":"Maison de Retraite Saint Joseph"},"_l":[47.2229342365441,-1.54315939540357],"LIBTHEME":"VIE SOCIALE","CODE_POSTAL":44000,"WEB":null,"STATUT":"Privé","TELEPHONE":"02 51 86 01 80","THEME":12,"COMMUNE":"NANTES","LIBCATEGORIE":"Personne agée","ADRESSE":"63 Rue Gaston Turpin","LIBTYPE":"Maison de retraite","_IDOBJ":357,"TYPE":120403,"CATEGORIE":1204},"geometry":{"type":"Point","coordinates":[-1.54315939540357,47.2229342365441]}},{"type":"Feature","properties":{"geo":{"name":"Résidence Service Les Castalies"},"_l":[47.2263932086159,-1.543415490694],"LIBTHEME":"VIE SOCIALE","CODE_POSTAL":44000,"WEB":null,"STATUT":"Privé","TELEPHONE":"02 40 29 17 78","THEME":12,"COMMUNE":"NANTES","LIBCATEGORIE":"Personne agée","ADRESSE":"158 Rue Général Buat","LIBTYPE":"Résidence service","_IDOBJ":359,"TYPE":120404,"CATEGORIE":1204},"geometry":{"type":"Point","coordinates":[-1.543415490694,47.2263932086159]}},{"type":"Feature","properties":{"geo":{"name":"Maison de Retraite Ma Maison"},"_l":[47.2245067294782,-1.56197113270256],"LIBTHEME":"VIE SOCIALE","CODE_POSTAL":44000,"WEB":null,"STATUT":"Privé","TELEPHONE":"02 40 20 00 50","THEME":12,"COMMUNE":"NANTES","LIBCATEGORIE":"Personne agée","ADRESSE":"12 Rue Russeil","LIBTYPE":"Maison de retraite","_IDOBJ":360,"TYPE":120403,"CATEGORIE":1204},"geometry":{"type":"Point","coordinates":[-1.56197113270256,47.2245067294782]}},{"type":"Feature","properties":{"geo":{"name":"Etablissement d'Hébergement pour Personnes Agées Dépendantes Le Repos de Procé"},"_l":[47.2205958559063,-1.5852906803906],"LIBTHEME":"VIE SOCIALE","CODE_POSTAL":44100,"WEB":null,"STATUT":"Privé","TELEPHONE":"02 40 95 29 59","THEME":12,"COMMUNE":"NANTES","LIBCATEGORIE":"Personne agée","ADRESSE":"29 Rue Condorcet","LIBTYPE":"Maison de retraite","_IDOBJ":361,"TYPE":120403,"CATEGORIE":1204},"geometry":{"type":"Point","coordinates":[-1.5852906803906,47.2205958559063]}},{"type":"Feature","properties":{"geo":{"name":"Maison de Retraite Résidence La Chézalière"},"_l":[47.2207215209061,-1.58370931325467],"LIBTHEME":"VIE SOCIALE","CODE_POSTAL":44100,"WEB":null,"STATUT":"Privé","TELEPHONE":"02 51 84 78 47","THEME":12,"COMMUNE":"NANTES","LIBCATEGORIE":"Personne agée","ADRESSE":"46 Rue Condorcet","LIBTYPE":"Maison de retraite","_IDOBJ":362,"TYPE":120403,"CATEGORIE":1204},"geometry":{"type":"Point","coordinates":[-1.58370931325467,47.2207215209061]}},{"type":"Feature","properties":{"geo":{"name":"Etablissement d'Hébergement pour Personnes Agées Dépendantes Le Bois Hercé"},"_l":[47.208675062249,-1.58959645747242],"LIBTHEME":"VIE SOCIALE","CODE_POSTAL":44100,"WEB":null,"STATUT":"Privé","TELEPHONE":"02 40 95 22 01","THEME":12,"COMMUNE":"NANTES","LIBCATEGORIE":"Personne agée","ADRESSE":"25 Rue du Bois Hercé","LIBTYPE":"Maison de retraite","_IDOBJ":363,"TYPE":120403,"CATEGORIE":1204},"geometry":{"type":"Point","coordinates":[-1.58959645747242,47.208675062249]}},{"type":"Feature","properties":{"geo":{"name":"Etablissement d'Hébergement pour Personnes Agées Dépendantes La Madeleine"},"_l":[47.2030130300019,-1.54763961855813],"LIBTHEME":"VIE SOCIALE","CODE_POSTAL":44200,"WEB":null,"STATUT":"Public","TELEPHONE":"02 40 89 01 00","THEME":12,"COMMUNE":"NANTES","LIBCATEGORIE":"Personne agée","ADRESSE":"1 Rue des Récollets","LIBTYPE":"Maison de retraite","_IDOBJ":364,"TYPE":120403,"CATEGORIE":1204},"geometry":{"type":"Point","coordinates":[-1.54763961855813,47.2030130300019]}},{"type":"Feature","properties":{"geo":{"name":"Accueil de Jour Le Relais d'Automne"},"_l":[47.2058031731861,-1.55315109880532],"LIBTHEME":"VIE SOCIALE","CODE_POSTAL":44200,"WEB":null,"STATUT":"Privé","TELEPHONE":"02 40 47 06 00","THEME":12,"COMMUNE":"NANTES","LIBCATEGORIE":"Personne agée","ADRESSE":"6 Rue de Hercé","LIBTYPE":"Accueil personne agée","_IDOBJ":365,"TYPE":120401,"CATEGORIE":1204},"geometry":{"type":"Point","coordinates":[-1.55315109880532,47.2058031731861]}},{"type":"Feature","properties":{"geo":{"name":"Etablissement d'Hébergement pour Personnes Agées Dépendantes Pirmil"},"_l":[47.1942614575083,-1.54162355658174],"LIBTHEME":"VIE SOCIALE","CODE_POSTAL":44200,"WEB":null,"STATUT":"Public","TELEPHONE":"02 40 04 23 23","THEME":12,"COMMUNE":"NANTES","LIBCATEGORIE":"Personne agée","ADRESSE":"6 Avenue Laurent Bonnevay","LIBTYPE":"Maison de retraite","_IDOBJ":366,"TYPE":120403,"CATEGORIE":1204},"geometry":{"type":"Point","coordinates":[-1.54162355658174,47.1942614575083]}},{"type":"Feature","properties":{"geo":{"name":"Foyer Logement Port Boyer"},"_l":[47.2392504723681,-1.54197748717018],"LIBTHEME":"VIE SOCIALE","CODE_POSTAL":44300,"WEB":null,"STATUT":"Public","TELEPHONE":"02 40 49 25 35","THEME":12,"COMMUNE":"NANTES","LIBCATEGORIE":"Personne agée","ADRESSE":"4 Rue de la Turballe","LIBTYPE":"Logement","_IDOBJ":367,"TYPE":120402,"CATEGORIE":1204},"geometry":{"type":"Point","coordinates":[-1.54197748717018,47.2392504723681]}},{"type":"Feature","properties":{"geo":{"name":"Maison de Retraite Résidence La Guilbourderie"},"_l":[47.2521463355872,-1.55781405624127],"LIBTHEME":"VIE SOCIALE","CODE_POSTAL":44300,"WEB":null,"STATUT":"Privé","TELEPHONE":"02 40 67 20 99","THEME":12,"COMMUNE":"NANTES","LIBCATEGORIE":"Personne agée","ADRESSE":"83 Rue du Fresche Blanc","LIBTYPE":"Maison de retraite","_IDOBJ":368,"TYPE":120403,"CATEGORIE":1204},"geometry":{"type":"Point","coordinates":[-1.55781405624127,47.2521463355872]}},{"type":"Feature","properties":{"geo":{"name":"Maison de Retraite Le Doyenne du Ranzay"},"_l":[47.2526211774782,-1.5316959934477],"LIBTHEME":"VIE SOCIALE","CODE_POSTAL":44300,"WEB":null,"STATUT":"Privé","TELEPHONE":"02 51 89 83 83","THEME":12,"COMMUNE":"NANTES","LIBCATEGORIE":"Personne agée","ADRESSE":"3 Rue du Port Durand","LIBTYPE":"Maison de retraite","_IDOBJ":370,"TYPE":120403,"CATEGORIE":1204},"geometry":{"type":"Point","coordinates":[-1.5316959934477,47.2526211774782]}},{"type":"Feature","properties":{"geo":{"name":"Multi-accueil Petite Enfance Doulon"},"_l":[47.236389904768,-1.50870211417849],"LIBTHEME":"VIE SOCIALE","CODE_POSTAL":44300,"WEB":null,"STATUT":"Municipal","TELEPHONE":"02 40 52 25 31","THEME":12,"COMMUNE":"NANTES","LIBCATEGORIE":"Petite enfance","ADRESSE":"1 Rue de la Basse Chénaie","LIBTYPE":"Multi-accueil (Crèche)","_IDOBJ":372,"TYPE":120101,"CATEGORIE":1201},"geometry":{"type":"Point","coordinates":[-1.50870211417849,47.236389904768]}},{"type":"Feature","properties":{"geo":{"name":"Maison de l'Enfance et Terrain d'Aventure"},"_l":[47.2035453097864,-1.60730597359868],"LIBTHEME":"VIE SOCIALE","CODE_POSTAL":44100,"WEB":null,"STATUT":null,"TELEPHONE":"02 40 58 56 56","THEME":12,"COMMUNE":"NANTES","LIBCATEGORIE":"Jeunesse","ADRESSE":"20 Rue Firmin Colas","LIBTYPE":"Centre de loisirs","_IDOBJ":376,"TYPE":120201,"CATEGORIE":1202},"geometry":{"type":"Point","coordinates":[-1.60730597359868,47.2035453097864]}},{"type":"Feature","properties":{"geo":{"name":"Accueil de Loisirs Manu IV"},"_l":[47.2203249571716,-1.53543987527863],"LIBTHEME":"VIE SOCIALE","CODE_POSTAL":44000,"WEB":null,"STATUT":"Public","TELEPHONE":"02 40 37 07 87","THEME":12,"COMMUNE":"NANTES","LIBCATEGORIE":"Jeunesse","ADRESSE":"1 Place de la Manu","LIBTYPE":"Centre de loisirs","_IDOBJ":378,"TYPE":120201,"CATEGORIE":1202},"geometry":{"type":"Point","coordinates":[-1.53543987527863,47.2203249571716]}},{"type":"Feature","properties":{"geo":{"name":"Accueil de Loisirs Histoire de Jouer"},"_l":[47.2171828432197,-1.55618718951483],"LIBTHEME":"VIE SOCIALE","CODE_POSTAL":44000,"WEB":null,"STATUT":null,"TELEPHONE":"02 40 47 66 03","THEME":12,"COMMUNE":"NANTES","LIBCATEGORIE":"Jeunesse","ADRESSE":"12 Rue Armand Brossard","LIBTYPE":"Centre de loisirs","_IDOBJ":381,"TYPE":120201,"CATEGORIE":1202},"geometry":{"type":"Point","coordinates":[-1.55618718951483,47.2171828432197]}},{"type":"Feature","properties":{"geo":{"name":"Centre socioculturel de Bellevue - ACCOORD"},"_l":[47.2077879439062,-1.60561557567524],"LIBTHEME":"VIE SOCIALE","CODE_POSTAL":44100,"WEB":"www.accoord.fr","STATUT":null,"TELEPHONE":"02 40 46 44 22","THEME":12,"COMMUNE":"NANTES","LIBCATEGORIE":"Vie associative","ADRESSE":"25 Rue du Jamet","LIBTYPE":"Centre socioculturel","_IDOBJ":383,"TYPE":120505,"CATEGORIE":1205},"geometry":{"type":"Point","coordinates":[-1.60561557567524,47.2077879439062]}},{"type":"Feature","properties":{"geo":{"name":"Antenne Bourderies"},"_l":[47.20671779633,-1.5966584262969],"LIBTHEME":"VIE SOCIALE","CODE_POSTAL":44100,"WEB":null,"STATUT":"Municipal","TELEPHONE":"02 40 46 80 28","THEME":12,"COMMUNE":"NANTES","LIBCATEGORIE":"Petite enfance","ADRESSE":"1 Rue de Saint Brévin","LIBTYPE":"Multi-accueil (Crèche)","_IDOBJ":385,"TYPE":120101,"CATEGORIE":1201},"geometry":{"type":"Point","coordinates":[-1.5966584262969,47.20671779633]}},{"type":"Feature","properties":{"geo":{"name":"Centre de Loisirs Maisdon Pajot"},"_l":[47.21791847748,-1.5856232705421],"LIBTHEME":"VIE SOCIALE","CODE_POSTAL":44100,"WEB":null,"STATUT":null,"TELEPHONE":"02 40 73 15 98","THEME":12,"COMMUNE":"NANTES","LIBCATEGORIE":"Jeunesse","ADRESSE":"25 Rue Monte Au Ciel","LIBTYPE":"Centre de loisirs","_IDOBJ":387,"TYPE":120201,"CATEGORIE":1202},"geometry":{"type":"Point","coordinates":[-1.5856232705421,47.21791847748]}},{"type":"Feature","properties":{"geo":{"name":"Maison de quartier des Dervallières - ACCOORD"},"_l":[47.223032364696,-1.59521333157472],"LIBTHEME":"VIE SOCIALE","CODE_POSTAL":44100,"WEB":null,"STATUT":null,"TELEPHONE":"02 40 46 02 17","THEME":12,"COMMUNE":"NANTES","LIBCATEGORIE":"Vie associative","ADRESSE":"5 Rue Auguste Renoir","LIBTYPE":"Maison de quartier","_IDOBJ":388,"TYPE":120504,"CATEGORIE":1205},"geometry":{"type":"Point","coordinates":[-1.59521333157472,47.223032364696]}},{"type":"Feature","properties":{"geo":{"name":"Centre socioculturel du Port-Boyer - ACCOORD"},"_l":[47.2411960977563,-1.54112573304283],"LIBTHEME":"VIE SOCIALE","CODE_POSTAL":44300,"WEB":"www.accoord.fr","STATUT":null,"TELEPHONE":"02 40 49 21 81","THEME":12,"COMMUNE":"NANTES","LIBCATEGORIE":"Vie associative","ADRESSE":"7 Rue de Pornichet","LIBTYPE":"Centre socioculturel","_IDOBJ":391,"TYPE":120505,"CATEGORIE":1205},"geometry":{"type":"Point","coordinates":[-1.54112573304283,47.2411960977563]}},{"type":"Feature","properties":{"geo":{"name":"Salle municipale La Géraudière"},"_l":[47.2587215408318,-1.56773305876015],"LIBTHEME":"VIE SOCIALE","CODE_POSTAL":44300,"WEB":"www.nantes.fr","STATUT":null,"TELEPHONE":"02 40 59 56 71","THEME":12,"COMMUNE":"NANTES","LIBCATEGORIE":"Vie associative","ADRESSE":"81 Rue des Renards","LIBTYPE":"Salle associative","_IDOBJ":393,"TYPE":120503,"CATEGORIE":1205},"geometry":{"type":"Point","coordinates":[-1.56773305876015,47.2587215408318]}},{"type":"Feature","properties":{"geo":{"name":"Centre de Loisirs Bout des Pavés ACCOORD"},"_l":[47.2566862547464,-1.57616016212572],"LIBTHEME":"VIE SOCIALE","CODE_POSTAL":44300,"WEB":null,"STATUT":null,"TELEPHONE":"02 40 40 19 16","THEME":12,"COMMUNE":"NANTES","LIBCATEGORIE":"Jeunesse","ADRESSE":"39 Route de la Chapelle Sur Erdre","LIBTYPE":"Centre de loisirs","_IDOBJ":395,"TYPE":120201,"CATEGORIE":1202},"geometry":{"type":"Point","coordinates":[-1.57616016212572,47.2566862547464]}},{"type":"Feature","properties":{"geo":{"name":"Centre socioculturel du Bout-des-Landes - ACCOORD"},"_l":[47.2659540931082,-1.57823843187786],"LIBTHEME":"VIE SOCIALE","CODE_POSTAL":44300,"WEB":"www.accoord.fr","STATUT":null,"TELEPHONE":"02 40 76 15 52","THEME":12,"COMMUNE":"NANTES","LIBCATEGORIE":"Vie associative","ADRESSE":"12 Rue de Concarneau","LIBTYPE":"Centre socioculturel","_IDOBJ":398,"TYPE":120505,"CATEGORIE":1205},"geometry":{"type":"Point","coordinates":[-1.57823843187786,47.2659540931082]}},{"type":"Feature","properties":{"geo":{"name":"Pôle associatif Beaulieu"},"_l":[47.2035884337495,-1.54158874669436],"LIBTHEME":"VIE SOCIALE","CODE_POSTAL":44200,"WEB":null,"STATUT":null,"TELEPHONE":"02 40 35 24 89","THEME":12,"COMMUNE":"NANTES","LIBCATEGORIE":"Vie associative","ADRESSE":"12 Rue Anatole de Monzie","LIBTYPE":"Pôle associatif","_IDOBJ":399,"TYPE":120502,"CATEGORIE":1205},"geometry":{"type":"Point","coordinates":[-1.54158874669436,47.2035884337495]}},{"type":"Feature","properties":{"geo":{"name":"Centre de Loisirs Les Ponts ACCOORD"},"_l":[47.2063441278332,-1.54986716681084],"LIBTHEME":"VIE SOCIALE","CODE_POSTAL":44200,"WEB":null,"STATUT":null,"TELEPHONE":"02 40 48 77 27","THEME":12,"COMMUNE":"NANTES","LIBCATEGORIE":"Jeunesse","ADRESSE":"14 Rue Michel Rocher","LIBTYPE":"Centre de loisirs","_IDOBJ":400,"TYPE":120201,"CATEGORIE":1202},"geometry":{"type":"Point","coordinates":[-1.54986716681084,47.2063441278332]}},{"type":"Feature","properties":{"geo":{"name":"Maison de quartier de l'Ile de Nantes"},"_l":[47.2066924985885,-1.55087434568292],"LIBTHEME":"VIE SOCIALE","CODE_POSTAL":44200,"WEB":null,"STATUT":null,"TELEPHONE":"02 40 48 61 01","THEME":12,"COMMUNE":"NANTES","LIBCATEGORIE":"Vie associative","ADRESSE":"2 Rue Conan Mériadec","LIBTYPE":"Maison de quartier","_IDOBJ":401,"TYPE":120504,"CATEGORIE":1205},"geometry":{"type":"Point","coordinates":[-1.55087434568292,47.2066924985885]}},{"type":"Feature","properties":{"geo":{"name":"Accueil de Loisirs Aubinière"},"_l":[47.2585448054839,-1.49611929242603],"LIBTHEME":"VIE SOCIALE","CODE_POSTAL":44300,"WEB":null,"STATUT":null,"TELEPHONE":"02 40 25 66 31","THEME":12,"COMMUNE":"NANTES","LIBCATEGORIE":"Jeunesse","ADRESSE":"24 Chemin du Château de l'Aubinière","LIBTYPE":"Centre de loisirs","_IDOBJ":403,"TYPE":120201,"CATEGORIE":1202},"geometry":{"type":"Point","coordinates":[-1.49611929242603,47.2585448054839]}},{"type":"Feature","properties":{"geo":{"name":"Centre socioculturel du Perray-Haluchère - ACCOORD"},"_l":[47.2471922708709,-1.51241291953483],"LIBTHEME":"VIE SOCIALE","CODE_POSTAL":44300,"WEB":"www.accoord.fr","STATUT":null,"TELEPHONE":"02 40 49 74 69","THEME":12,"COMMUNE":"NANTES","LIBCATEGORIE":"Vie associative","ADRESSE":"1 Rue Jules Grandjouan","LIBTYPE":"Centre socioculturel","_IDOBJ":404,"TYPE":120505,"CATEGORIE":1205},"geometry":{"type":"Point","coordinates":[-1.51241291953483,47.2471922708709]}},{"type":"Feature","properties":{"geo":{"name":"Salle municipale Radar Pin Sec"},"_l":[47.2440656387238,-1.52125225830279],"LIBTHEME":"VIE SOCIALE","CODE_POSTAL":44300,"WEB":"www.nantes.fr","STATUT":null,"TELEPHONE":"02 28 23 54 83","THEME":12,"COMMUNE":"NANTES","LIBCATEGORIE":"Vie associative","ADRESSE":"24 Boulevard Henri Dunant","LIBTYPE":"Salle associative","_IDOBJ":405,"TYPE":120503,"CATEGORIE":1205},"geometry":{"type":"Point","coordinates":[-1.52125225830279,47.2440656387238]}},{"type":"Feature","properties":{"geo":{"name":"Pôle associatif Baco"},"_l":[47.2129290208381,-1.55111121054703],"LIBTHEME":"VIE SOCIALE","CODE_POSTAL":44000,"WEB":null,"STATUT":null,"TELEPHONE":"02 40 47 64 40","THEME":12,"COMMUNE":"NANTES","LIBCATEGORIE":"Vie associative","ADRESSE":"21 Allée Baco","LIBTYPE":"Pôle associatif","_IDOBJ":414,"TYPE":120502,"CATEGORIE":1205},"geometry":{"type":"Point","coordinates":[-1.55111121054703,47.2129290208381]}},{"type":"Feature","properties":{"geo":{"name":"Centre socioculturel de la Pilotière - ACCOORD"},"_l":[47.24487150392,-1.52406074624747],"LIBTHEME":"VIE SOCIALE","CODE_POSTAL":44300,"WEB":"www.accoord.fr","STATUT":null,"TELEPHONE":"02 40 50 32 44","THEME":12,"COMMUNE":"NANTES","LIBCATEGORIE":"Vie associative","ADRESSE":"31 Rue des Platanes","LIBTYPE":"Centre socioculturel","_IDOBJ":406,"TYPE":120505,"CATEGORIE":1205},"geometry":{"type":"Point","coordinates":[-1.52406074624747,47.24487150392]}},{"type":"Feature","properties":{"geo":{"name":"Maison de quartier de la Halvêque - ACCOORD"},"_l":[47.2540075172866,-1.51932893711495],"LIBTHEME":"VIE SOCIALE","CODE_POSTAL":44300,"WEB":null,"STATUT":null,"TELEPHONE":"02 40 49 94 10","THEME":12,"COMMUNE":"NANTES","LIBCATEGORIE":"Vie associative","ADRESSE":"23 Rue Léon Serpollet","LIBTYPE":"Maison de quartier","_IDOBJ":407,"TYPE":120504,"CATEGORIE":1205},"geometry":{"type":"Point","coordinates":[-1.51932893711495,47.2540075172866]}},{"type":"Feature","properties":{"geo":{"name":"Centre Régional Oeuvres Universitaire Scolaire"},"_l":[47.2445424891979,-1.5557756545844],"LIBTHEME":"VIE SOCIALE","CODE_POSTAL":44300,"WEB":"www.crous-nantes.fr","STATUT":null,"TELEPHONE":"02 40 37 13 13","THEME":12,"COMMUNE":"NANTES","LIBCATEGORIE":"Etudiant","ADRESSE":"2 Boulevard Guy Mollet","LIBTYPE":"Divers","_IDOBJ":488,"TYPE":120304,"CATEGORIE":1203},"geometry":{"type":"Point","coordinates":[-1.5557756545844,47.2445424891979]}},{"type":"Feature","properties":{"geo":{"name":"Résidence Universitaire Launay Violette"},"_l":[47.2492136371173,-1.55896135466928],"LIBTHEME":"VIE SOCIALE","CODE_POSTAL":44300,"WEB":null,"STATUT":null,"TELEPHONE":"02 40 76 43 93","THEME":12,"COMMUNE":"NANTES","LIBCATEGORIE":"Etudiant","ADRESSE":"20 Chemin de Launay Violette","LIBTYPE":"Résidence universitaire","_IDOBJ":497,"TYPE":120302,"CATEGORIE":1203},"geometry":{"type":"Point","coordinates":[-1.55896135466928,47.2492136371173]}},{"type":"Feature","properties":{"geo":{"name":"Résidence Universitaire Fresche Blanc"},"_l":[47.2519631401509,-1.55679220433857],"LIBTHEME":"VIE SOCIALE","CODE_POSTAL":44300,"WEB":null,"STATUT":null,"TELEPHONE":"02 40 76 62 91","THEME":12,"COMMUNE":"NANTES","LIBCATEGORIE":"Etudiant","ADRESSE":"Rue de la Bourgeonnière","LIBTYPE":"Résidence universitaire","_IDOBJ":499,"TYPE":120302,"CATEGORIE":1203},"geometry":{"type":"Point","coordinates":[-1.55679220433857,47.2519631401509]}},{"type":"Feature","properties":{"geo":{"name":"Résidence Universitaire Bourgeonnière"},"_l":[47.2533646499218,-1.5627441373101],"LIBTHEME":"VIE SOCIALE","CODE_POSTAL":44300,"WEB":null,"STATUT":null,"TELEPHONE":"02 40 76 70 56","THEME":12,"COMMUNE":"NANTES","LIBCATEGORIE":"Etudiant","ADRESSE":"3 Rue des Renards","LIBTYPE":"Résidence universitaire","_IDOBJ":505,"TYPE":120302,"CATEGORIE":1203},"geometry":{"type":"Point","coordinates":[-1.5627441373101,47.2533646499218]}},{"type":"Feature","properties":{"geo":{"name":"Résidence Universitaire Berlioz"},"_l":[47.2374166551911,-1.57803380310584],"LIBTHEME":"VIE SOCIALE","CODE_POSTAL":44300,"WEB":null,"STATUT":null,"TELEPHONE":"02 40 76 83 89","THEME":12,"COMMUNE":"NANTES","LIBCATEGORIE":"Etudiant","ADRESSE":"81 Rue de la Gaudinière","LIBTYPE":"Résidence universitaire","_IDOBJ":530,"TYPE":120302,"CATEGORIE":1203},"geometry":{"type":"Point","coordinates":[-1.57803380310584,47.2374166551911]}},{"type":"Feature","properties":{"geo":{"name":"Résidence Universitaire Casterneau"},"_l":[47.2286444515613,-1.52956968606441],"LIBTHEME":"VIE SOCIALE","CODE_POSTAL":44000,"WEB":null,"STATUT":null,"TELEPHONE":"02 40 52 12 24","THEME":12,"COMMUNE":"NANTES","LIBCATEGORIE":"Etudiant","ADRESSE":"1 Rue André Baugé","LIBTYPE":"Résidence universitaire","_IDOBJ":552,"TYPE":120302,"CATEGORIE":1203},"geometry":{"type":"Point","coordinates":[-1.52956968606441,47.2286444515613]}},{"type":"Feature","properties":{"geo":{"name":"Résidence Universitaire Chanzy"},"_l":[47.2257666417151,-1.54736535011811],"LIBTHEME":"VIE SOCIALE","CODE_POSTAL":44000,"WEB":null,"STATUT":null,"TELEPHONE":"02 40 74 15 32","THEME":12,"COMMUNE":"NANTES","LIBCATEGORIE":"Etudiant","ADRESSE":"1 Rue Henri Lasne","LIBTYPE":"Résidence universitaire","_IDOBJ":566,"TYPE":120302,"CATEGORIE":1203},"geometry":{"type":"Point","coordinates":[-1.54736535011811,47.2257666417151]}},{"type":"Feature","properties":{"geo":{"name":"Bibliothèque Universitaire  Sciences"},"_l":[47.2365046598138,-1.55507723685139],"LIBTHEME":"VIE SOCIALE","CODE_POSTAL":44300,"WEB":"www.bu.univ-nantes.fr","STATUT":null,"TELEPHONE":"02 51 12 52 20","THEME":12,"COMMUNE":"NANTES","LIBCATEGORIE":"Etudiant","ADRESSE":"2 Chemin de la Houssinière","LIBTYPE":"Bibliothèque universitaire","_IDOBJ":598,"TYPE":120301,"CATEGORIE":1203},"geometry":{"type":"Point","coordinates":[-1.55507723685139,47.2365046598138]}},{"type":"Feature","properties":{"geo":{"name":"Restaurant Club La Manu"},"_l":[47.2196126766451,-1.53684293181556],"LIBTHEME":"VIE SOCIALE","CODE_POSTAL":44000,"WEB":null,"STATUT":"Public","TELEPHONE":"02 40 74 93 76","THEME":12,"COMMUNE":"NANTES","LIBCATEGORIE":"Personne agée","ADRESSE":"3 Cour Jules Durand","LIBTYPE":"Restaurant club","_IDOBJ":642,"TYPE":120405,"CATEGORIE":1204},"geometry":{"type":"Point","coordinates":[-1.53684293181556,47.2196126766451]}},{"type":"Feature","properties":{"geo":{"name":"Restaurant Club Savenay"},"_l":[47.2224448456009,-1.56120786208494],"LIBTHEME":"VIE SOCIALE","CODE_POSTAL":44000,"WEB":null,"STATUT":"Public","TELEPHONE":"02 40 20 33 64","THEME":12,"COMMUNE":"NANTES","LIBCATEGORIE":"Personne agée","ADRESSE":"18 Rue de Savenay","LIBTYPE":"Restaurant club","_IDOBJ":643,"TYPE":120405,"CATEGORIE":1204},"geometry":{"type":"Point","coordinates":[-1.56120786208494,47.2224448456009]}},{"type":"Feature","properties":{"geo":{"name":"Foyer Logement Sainte Luce"},"_l":[47.2346487246445,-1.52113386996939],"LIBTHEME":"VIE SOCIALE","CODE_POSTAL":44300,"WEB":null,"STATUT":"Public","TELEPHONE":"02 40 49 60 97","THEME":12,"COMMUNE":"NANTES","LIBCATEGORIE":"Personne agée","ADRESSE":"27 Rue du Croissant","LIBTYPE":"Logement","_IDOBJ":645,"TYPE":120402,"CATEGORIE":1204},"geometry":{"type":"Point","coordinates":[-1.52113386996939,47.2346487246445]}},{"type":"Feature","properties":{"geo":{"name":"Foyer Logement,Résidence de La Marrière"},"_l":[47.2389379466381,-1.52922324646443],"LIBTHEME":"VIE SOCIALE","CODE_POSTAL":44300,"WEB":null,"STATUT":"Privé","TELEPHONE":"02 40 50 64 44","THEME":12,"COMMUNE":"NANTES","LIBCATEGORIE":"Personne agée","ADRESSE":"161 Rue du Croissant","LIBTYPE":"Logement","_IDOBJ":646,"TYPE":120402,"CATEGORIE":1204},"geometry":{"type":"Point","coordinates":[-1.52922324646443,47.2389379466381]}},{"type":"Feature","properties":{"geo":{"name":"Résidence Universitaire Les Landes"},"_l":[47.2523075650124,-1.56230606582345],"LIBTHEME":"VIE SOCIALE","CODE_POSTAL":44300,"WEB":null,"STATUT":null,"TELEPHONE":"02 40 16 02 60","THEME":12,"COMMUNE":"NANTES","LIBCATEGORIE":"Etudiant","ADRESSE":"36 Rue des Landes","LIBTYPE":"Résidence universitaire","_IDOBJ":678,"TYPE":120302,"CATEGORIE":1203},"geometry":{"type":"Point","coordinates":[-1.56230606582345,47.2523075650124]}},{"type":"Feature","properties":{"geo":{"name":"Pôle associatif Prinquiau"},"_l":[47.2122112954543,-1.58767664485228],"LIBTHEME":"VIE SOCIALE","CODE_POSTAL":44100,"WEB":null,"STATUT":null,"TELEPHONE":"02 40 43 70 75","THEME":12,"COMMUNE":"NANTES","LIBCATEGORIE":"Vie associative","ADRESSE":"11 Rue du Prinquiau","LIBTYPE":"Pôle associatif","_IDOBJ":679,"TYPE":120502,"CATEGORIE":1205},"geometry":{"type":"Point","coordinates":[-1.58767664485228,47.2122112954543]}},{"type":"Feature","properties":{"geo":{"name":"Salle municipale L'Egalité"},"_l":[47.2099281661053,-1.58903183662323],"LIBTHEME":"VIE SOCIALE","CODE_POSTAL":44100,"WEB":"www.nantes.fr","STATUT":null,"TELEPHONE":"02 40 46 37 35","THEME":12,"COMMUNE":"NANTES","LIBCATEGORIE":"Vie associative","ADRESSE":"6 Boulevard Léon Jouhaux","LIBTYPE":"Salle associative","_IDOBJ":774,"TYPE":120503,"CATEGORIE":1205},"geometry":{"type":"Point","coordinates":[-1.58903183662323,47.2099281661053]}},{"type":"Feature","properties":{"geo":{"name":"Multi-accueil Petite Enfance Boissière"},"_l":[47.2542008090951,-1.56757499072062],"LIBTHEME":"VIE SOCIALE","CODE_POSTAL":44300,"WEB":null,"STATUT":"Municipal","TELEPHONE":"02 40 76 91 54","THEME":12,"COMMUNE":"NANTES","LIBCATEGORIE":"Petite enfance","ADRESSE":"9B Rue Jean De La Bruyère","LIBTYPE":"Multi-accueil (Crèche)","_IDOBJ":868,"TYPE":120101,"CATEGORIE":1201},"geometry":{"type":"Point","coordinates":[-1.56757499072062,47.2542008090951]}},{"type":"Feature","properties":{"geo":{"name":"Multi-accueil Petite Enfance Chlorophylle"},"_l":[47.2253182264676,-1.59685117196213],"LIBTHEME":"VIE SOCIALE","CODE_POSTAL":44100,"WEB":null,"STATUT":"Municipal","TELEPHONE":"02 40 46 44 79","THEME":12,"COMMUNE":"NANTES","LIBCATEGORIE":"Petite enfance","ADRESSE":"4 Rue Auguste Renoir","LIBTYPE":"Multi-accueil (Crèche)","_IDOBJ":873,"TYPE":120101,"CATEGORIE":1201},"geometry":{"type":"Point","coordinates":[-1.59685117196213,47.2253182264676]}},{"type":"Feature","properties":{"geo":{"name":"Multi-accueil Petite Enfance Créchendo"},"_l":[47.2183524751174,-1.55638701807266],"LIBTHEME":"VIE SOCIALE","CODE_POSTAL":44000,"WEB":null,"STATUT":"Municipal","TELEPHONE":"02 40 47 95 49","THEME":12,"COMMUNE":"NANTES","LIBCATEGORIE":"Petite enfance","ADRESSE":"17 Rue Armand Brossard","LIBTYPE":"Multi-accueil (Crèche)","_IDOBJ":874,"TYPE":120101,"CATEGORIE":1201},"geometry":{"type":"Point","coordinates":[-1.55638701807266,47.2183524751174]}},{"type":"Feature","properties":{"geo":{"name":"Crèche Associative Fluffy"},"_l":[47.2217131333705,-1.59565357067377],"LIBTHEME":"VIE SOCIALE","CODE_POSTAL":44100,"WEB":null,"STATUT":"Non Municipal","TELEPHONE":"09 61 44 44 14","THEME":12,"COMMUNE":"NANTES","LIBCATEGORIE":"Petite enfance","ADRESSE":"4 Rue Paul Delaroche","LIBTYPE":"Multi-accueil (Crèche)","_IDOBJ":875,"TYPE":120101,"CATEGORIE":1201},"geometry":{"type":"Point","coordinates":[-1.59565357067377,47.2217131333705]}},{"type":"Feature","properties":{"geo":{"name":"Crèche Associative Hänsel et Gretel"},"_l":[47.2691049524778,-1.52209509389055],"LIBTHEME":"VIE SOCIALE","CODE_POSTAL":44300,"WEB":null,"STATUT":"Non Municipal","TELEPHONE":"02 40 50 50 75","THEME":12,"COMMUNE":"NANTES","LIBCATEGORIE":"Petite enfance","ADRESSE":"3 Rue de la Planche au Gué","LIBTYPE":"Multi-accueil (Crèche)","_IDOBJ":876,"TYPE":120101,"CATEGORIE":1201},"geometry":{"type":"Point","coordinates":[-1.52209509389055,47.2691049524778]}},{"type":"Feature","properties":{"geo":{"name":"Crèche Associative L'Ile aux Enfants"},"_l":[47.2362801836668,-1.57948692592437],"LIBTHEME":"VIE SOCIALE","CODE_POSTAL":44300,"WEB":null,"STATUT":"Non Municipal","TELEPHONE":"02 40 40 91 59","THEME":12,"COMMUNE":"NANTES","LIBCATEGORIE":"Petite enfance","ADRESSE":"108 Boulevard de Longchamp","LIBTYPE":"Multi-accueil (Crèche)","_IDOBJ":878,"TYPE":120101,"CATEGORIE":1201},"geometry":{"type":"Point","coordinates":[-1.57948692592437,47.2362801836668]}},{"type":"Feature","properties":{"geo":{"name":"Lieu Accueil Parents Enfants L'Oasis"},"_l":[47.2042752240562,-1.60469234797042],"LIBTHEME":"VIE SOCIALE","CODE_POSTAL":44100,"WEB":null,"STATUT":"Municipal","TELEPHONE":"02 40 46 52 57","THEME":12,"COMMUNE":"NANTES","LIBCATEGORIE":"Petite enfance","ADRESSE":"1 Place des Lauriers","LIBTYPE":"Multi-accueil (Crèche)","_IDOBJ":879,"TYPE":120101,"CATEGORIE":1201},"geometry":{"type":"Point","coordinates":[-1.60469234797042,47.2042752240562]}},{"type":"Feature","properties":{"geo":{"name":"Crèche Associative La Boîte à Musique"},"_l":[47.2067424337318,-1.562340926571],"LIBTHEME":"VIE SOCIALE","CODE_POSTAL":44200,"WEB":null,"STATUT":"Non Municipal","TELEPHONE":"09 65 25 71 12","THEME":12,"COMMUNE":"NANTES","LIBCATEGORIE":"Petite enfance","ADRESSE":"25 Rue Lanoue Bras de Fer","LIBTYPE":"Multi-accueil (Crèche)","_IDOBJ":880,"TYPE":120101,"CATEGORIE":1201},"geometry":{"type":"Point","coordinates":[-1.562340926571,47.2067424337318]}},{"type":"Feature","properties":{"geo":{"name":"Multi-accueil La Maison de Jordan"},"_l":[47.2454135845628,-1.5333113084885],"LIBTHEME":"VIE SOCIALE","CODE_POSTAL":44300,"WEB":null,"STATUT":"Non Municipal","TELEPHONE":"02 40 50 07 22","THEME":12,"COMMUNE":"NANTES","LIBCATEGORIE":"Petite enfance","ADRESSE":"2 Rue de la Petite Noë","LIBTYPE":"Multi-accueil (Crèche)","_IDOBJ":881,"TYPE":120101,"CATEGORIE":1201},"geometry":{"type":"Point","coordinates":[-1.5333113084885,47.2454135845628]}},{"type":"Feature","properties":{"geo":{"name":"Crèche Associative La Maison de Nanou"},"_l":[47.2284838318111,-1.54108687308294],"LIBTHEME":"VIE SOCIALE","CODE_POSTAL":44000,"WEB":null,"STATUT":"Non Municipal","TELEPHONE":"02 40 93 31 95","THEME":12,"COMMUNE":"NANTES","LIBCATEGORIE":"Petite enfance","ADRESSE":"75 Rue Général Buat","LIBTYPE":"Multi-accueil (Crèche)","_IDOBJ":882,"TYPE":120101,"CATEGORIE":1201},"geometry":{"type":"Point","coordinates":[-1.54108687308294,47.2284838318111]}},{"type":"Feature","properties":{"geo":{"name":"Crèche Le Jardin des Poupies"},"_l":[47.2281330097587,-1.59442680546425],"LIBTHEME":"VIE SOCIALE","CODE_POSTAL":44100,"WEB":"www.jardindespoupies.fr","STATUT":"Non Municipal","TELEPHONE":"02 51 82 37 93","THEME":12,"COMMUNE":"NANTES","LIBCATEGORIE":"Petite enfance","ADRESSE":"3 Rue Louis Brisset","LIBTYPE":"Multi-accueil (Crèche)","_IDOBJ":883,"TYPE":120101,"CATEGORIE":1201},"geometry":{"type":"Point","coordinates":[-1.59442680546425,47.2281330097587]}},{"type":"Feature","properties":{"geo":{"name":"Multi-accueil La Toupie Magique"},"_l":[47.220670829301,-1.56466482805977],"LIBTHEME":"VIE SOCIALE","CODE_POSTAL":44000,"WEB":null,"STATUT":"Non Municipal","TELEPHONE":"02 40 40 50 50","THEME":12,"COMMUNE":"NANTES","LIBCATEGORIE":"Petite enfance","ADRESSE":"9B Rue Félibien","LIBTYPE":"Multi-accueil (Crèche)","_IDOBJ":884,"TYPE":120101,"CATEGORIE":1201},"geometry":{"type":"Point","coordinates":[-1.56466482805977,47.220670829301]}},{"type":"Feature","properties":{"geo":{"name":"Crèche Associative Jour 2 crèches Mellinet"},"_l":[47.2094206736225,-1.57657657106654],"LIBTHEME":"VIE SOCIALE","CODE_POSTAL":44100,"WEB":null,"STATUT":"Non Municipal","TELEPHONE":"02 40 69 73 10","THEME":12,"COMMUNE":"NANTES","LIBCATEGORIE":"Petite enfance","ADRESSE":"7 Rue Fulton","LIBTYPE":"Multi-accueil (Crèche)","_IDOBJ":885,"TYPE":120101,"CATEGORIE":1201},"geometry":{"type":"Point","coordinates":[-1.57657657106654,47.2094206736225]}},{"type":"Feature","properties":{"geo":{"name":"Crèche Associative Le Petit Bonheur"},"_l":[47.2222920190992,-1.53476676209095],"LIBTHEME":"VIE SOCIALE","CODE_POSTAL":44000,"WEB":null,"STATUT":"Non Municipal","TELEPHONE":"02 40 37 95 51","THEME":12,"COMMUNE":"NANTES","LIBCATEGORIE":"Petite enfance","ADRESSE":"67B Rue d'Allonville","LIBTYPE":"Multi-accueil (Crèche)","_IDOBJ":886,"TYPE":120101,"CATEGORIE":1201},"geometry":{"type":"Point","coordinates":[-1.53476676209095,47.2222920190992]}},{"type":"Feature","properties":{"geo":{"name":"Lieux Accueil  Enfants Parents Le Sablier"},"_l":[47.2249928015371,-1.60147088276015],"LIBTHEME":"VIE SOCIALE","CODE_POSTAL":44100,"WEB":null,"STATUT":"Non Municipal","TELEPHONE":"02 40 43 82 66","THEME":12,"COMMUNE":"NANTES","LIBCATEGORIE":"Petite enfance","ADRESSE":"16 Rue Charles Perron","LIBTYPE":"Multi-accueil (Crèche)","_IDOBJ":887,"TYPE":120101,"CATEGORIE":1201},"geometry":{"type":"Point","coordinates":[-1.60147088276015,47.2249928015371]}},{"type":"Feature","properties":{"geo":{"name":"Crèche Associative Les Petits Dauphins"},"_l":[47.242843502752,-1.55603848370065],"LIBTHEME":"VIE SOCIALE","CODE_POSTAL":44300,"WEB":null,"STATUT":"Non Municipal","TELEPHONE":"02 40 74 25 59","THEME":12,"COMMUNE":"NANTES","LIBCATEGORIE":"Petite enfance","ADRESSE":"20 Boulevard du Petit Port","LIBTYPE":"Multi-accueil (Crèche)","_IDOBJ":888,"TYPE":120101,"CATEGORIE":1201},"geometry":{"type":"Point","coordinates":[-1.55603848370065,47.242843502752]}},{"type":"Feature","properties":{"geo":{"name":"Crèche Associative Enfanfare"},"_l":[47.230820410482,-1.53518618247868],"LIBTHEME":"VIE SOCIALE","CODE_POSTAL":44000,"WEB":null,"STATUT":"Non Municipal","TELEPHONE":"02 40 37 98 22","THEME":12,"COMMUNE":"NANTES","LIBCATEGORIE":"Petite enfance","ADRESSE":"21 Rue de Vienne","LIBTYPE":"Multi-accueil (Crèche)","_IDOBJ":889,"TYPE":120101,"CATEGORIE":1201},"geometry":{"type":"Point","coordinates":[-1.53518618247868,47.230820410482]}},{"type":"Feature","properties":{"geo":{"name":"Multi-accueil Les P'tits Loups"},"_l":[47.2372530041231,-1.52453184880178],"LIBTHEME":"VIE SOCIALE","CODE_POSTAL":44300,"WEB":null,"STATUT":"Non Municipal","TELEPHONE":"02 40 50 35 13","THEME":12,"COMMUNE":"NANTES","LIBCATEGORIE":"Petite enfance","ADRESSE":"102 Rue du Croissant","LIBTYPE":"Multi-accueil (Crèche)","_IDOBJ":890,"TYPE":120101,"CATEGORIE":1201},"geometry":{"type":"Point","coordinates":[-1.52453184880178,47.2372530041231]}},{"type":"Feature","properties":{"geo":{"name":"Multi-Accueil Petite Enfance Les Petits Pieds"},"_l":[47.2376897851199,-1.58340414721634],"LIBTHEME":"VIE SOCIALE","CODE_POSTAL":44300,"WEB":null,"STATUT":"Non Municipal","TELEPHONE":"02 40 40 80 81","THEME":12,"COMMUNE":"NANTES","LIBCATEGORIE":"Petite enfance","ADRESSE":"60 Rue Georges Lafont","LIBTYPE":"Multi-accueil (Crèche)","_IDOBJ":891,"TYPE":120101,"CATEGORIE":1201},"geometry":{"type":"Point","coordinates":[-1.58340414721634,47.2376897851199]}},{"type":"Feature","properties":{"geo":{"name":"Crèche Associative Mickey et Minnie"},"_l":[47.2221694067721,-1.5645285703078],"LIBTHEME":"VIE SOCIALE","CODE_POSTAL":44000,"WEB":null,"STATUT":"Non Municipal","TELEPHONE":"02 40 73 93 92","THEME":12,"COMMUNE":"NANTES","LIBCATEGORIE":"Petite enfance","ADRESSE":"8 Rue d'Auvours","LIBTYPE":"Multi-accueil (Crèche)","_IDOBJ":894,"TYPE":120101,"CATEGORIE":1201},"geometry":{"type":"Point","coordinates":[-1.5645285703078,47.2221694067721]}},{"type":"Feature","properties":{"geo":{"name":"Multi-Accueil Petite Enfance Minibou"},"_l":[47.2402543076918,-1.57783372115353],"LIBTHEME":"VIE SOCIALE","CODE_POSTAL":44300,"WEB":null,"STATUT":"Non Municipal","TELEPHONE":"02 40 59 53 17","THEME":12,"COMMUNE":"NANTES","LIBCATEGORIE":"Petite enfance","ADRESSE":"5B Rue Diane","LIBTYPE":"Multi-accueil (Crèche)","_IDOBJ":895,"TYPE":120101,"CATEGORIE":1201},"geometry":{"type":"Point","coordinates":[-1.57783372115353,47.2402543076918]}},{"type":"Feature","properties":{"geo":{"name":"Lieux Accueil  Enfants Parents Le Square"},"_l":[47.2609249694716,-1.57321086091913],"LIBTHEME":"VIE SOCIALE","CODE_POSTAL":44300,"WEB":null,"STATUT":"Municipal","TELEPHONE":"02 51 77 14 57","THEME":12,"COMMUNE":"NANTES","LIBCATEGORIE":"Petite enfance","ADRESSE":"8 Rue Samuel De Champlain","LIBTYPE":"Multi-accueil (Crèche)","_IDOBJ":896,"TYPE":120101,"CATEGORIE":1201},"geometry":{"type":"Point","coordinates":[-1.57321086091913,47.2609249694716]}},{"type":"Feature","properties":{"geo":{"name":"Crèche Associative Pic et Plume"},"_l":[47.2343743668518,-1.54562995924865],"LIBTHEME":"VIE SOCIALE","CODE_POSTAL":44000,"WEB":null,"STATUT":"Non Municipal","TELEPHONE":"02 40 52 09 96","THEME":12,"COMMUNE":"NANTES","LIBCATEGORIE":"Petite enfance","ADRESSE":"25 Rue des Boers","LIBTYPE":"Multi-accueil (Crèche)","_IDOBJ":897,"TYPE":120101,"CATEGORIE":1201},"geometry":{"type":"Point","coordinates":[-1.54562995924865,47.2343743668518]}},{"type":"Feature","properties":{"geo":{"name":"Crèche associative Jour 2 crèches Zola"},"_l":[47.2203690968464,-1.58627168662209],"LIBTHEME":"VIE SOCIALE","CODE_POSTAL":44100,"WEB":null,"STATUT":"Non Municipal","TELEPHONE":"02 40 46 67 15","THEME":12,"COMMUNE":"NANTES","LIBCATEGORIE":"Petite enfance","ADRESSE":"114 Boulevard de la Fraternité","LIBTYPE":"Multi-accueil (Crèche)","_IDOBJ":898,"TYPE":120101,"CATEGORIE":1201},"geometry":{"type":"Point","coordinates":[-1.58627168662209,47.2203690968464]}},{"type":"Feature","properties":{"geo":{"name":"Crèche Associative Pirouette"},"_l":[47.2285755646979,-1.5164854316371],"LIBTHEME":"VIE SOCIALE","CODE_POSTAL":44300,"WEB":null,"STATUT":"Non Municipal","TELEPHONE":"02 40 93 25 21","THEME":12,"COMMUNE":"NANTES","LIBCATEGORIE":"Petite enfance","ADRESSE":"7 Rue des Perrines","LIBTYPE":"Multi-accueil (Crèche)","_IDOBJ":899,"TYPE":120101,"CATEGORIE":1201},"geometry":{"type":"Point","coordinates":[-1.5164854316371,47.2285755646979]}},{"type":"Feature","properties":{"geo":{"name":"Crèche Familiale CHU Pôle Saint Jacques"},"_l":[47.1988490569758,-1.52956478396386],"LIBTHEME":"VIE SOCIALE","CODE_POSTAL":44200,"WEB":null,"STATUT":"Non Municipal","TELEPHONE":"02 40 08 71 07","THEME":12,"COMMUNE":"NANTES","LIBCATEGORIE":"Petite enfance","ADRESSE":"54 Route de Saint Sébastien","LIBTYPE":"Multi-accueil (Crèche)","_IDOBJ":903,"TYPE":120101,"CATEGORIE":1201},"geometry":{"type":"Point","coordinates":[-1.52956478396386,47.1988490569758]}},{"type":"Feature","properties":{"geo":{"name":"Crèche Associative Pomme Cannelle"},"_l":[47.2246022788681,-1.52213068701975],"LIBTHEME":"VIE SOCIALE","CODE_POSTAL":44000,"WEB":null,"STATUT":"Non Municipal","TELEPHONE":"02 40 49 23 42","THEME":12,"COMMUNE":"NANTES","LIBCATEGORIE":"Petite enfance","ADRESSE":"12 Rue Francis de Pressensé","LIBTYPE":"Multi-accueil (Crèche)","_IDOBJ":904,"TYPE":120101,"CATEGORIE":1201},"geometry":{"type":"Point","coordinates":[-1.52213068701975,47.2246022788681]}},{"type":"Feature","properties":{"geo":{"name":"Multi-accueil Petite Enfance Port Boyer"},"_l":[47.2413178475616,-1.54072721772026],"LIBTHEME":"VIE SOCIALE","CODE_POSTAL":44300,"WEB":null,"STATUT":"Municipal","TELEPHONE":"02 40 49 30 81","THEME":12,"COMMUNE":"NANTES","LIBCATEGORIE":"Petite enfance","ADRESSE":"77B Rue du Port Boyer","LIBTYPE":"Multi-accueil (Crèche)","_IDOBJ":905,"TYPE":120101,"CATEGORIE":1201},"geometry":{"type":"Point","coordinates":[-1.54072721772026,47.2413178475616]}},{"type":"Feature","properties":{"geo":{"name":"Crèche Associative Rêve et Ritournelle"},"_l":[47.2761121064679,-1.5122322566716],"LIBTHEME":"VIE SOCIALE","CODE_POSTAL":44300,"WEB":null,"STATUT":"Non Municipal","TELEPHONE":"02 40 49 94 31","THEME":12,"COMMUNE":"NANTES","LIBCATEGORIE":"Petite enfance","ADRESSE":"3 Rue Edouard Nignon","LIBTYPE":"Multi-accueil (Crèche)","_IDOBJ":906,"TYPE":120101,"CATEGORIE":1201},"geometry":{"type":"Point","coordinates":[-1.5122322566716,47.2761121064679]}},{"type":"Feature","properties":{"geo":{"name":"Antenne des Tauzins"},"_l":[47.2662002474893,-1.51962819610059],"LIBTHEME":"VIE SOCIALE","CODE_POSTAL":44300,"WEB":null,"STATUT":"Municipal","TELEPHONE":"02 40 30 11 37","THEME":12,"COMMUNE":"NANTES","LIBCATEGORIE":"Petite enfance","ADRESSE":"3 Passage des Tauzins","LIBTYPE":"Multi-accueil (Crèche)","_IDOBJ":907,"TYPE":120101,"CATEGORIE":1201},"geometry":{"type":"Point","coordinates":[-1.51962819610059,47.2662002474893]}},{"type":"Feature","properties":{"geo":{"name":"Crèche Associative Saint Luc"},"_l":[47.2174110656492,-1.57985251291175],"LIBTHEME":"VIE SOCIALE","CODE_POSTAL":44100,"WEB":null,"STATUT":"Non Municipal","TELEPHONE":"02 40 73 70 67","THEME":12,"COMMUNE":"NANTES","LIBCATEGORIE":"Petite enfance","ADRESSE":"25 Rue Bouchaud","LIBTYPE":"Multi-accueil (Crèche)","_IDOBJ":908,"TYPE":120101,"CATEGORIE":1201},"geometry":{"type":"Point","coordinates":[-1.57985251291175,47.2174110656492]}},{"type":"Feature","properties":{"geo":{"name":"Multi-accueil Petite Enfance Santos Dumont"},"_l":[47.2597003805246,-1.56722253488816],"LIBTHEME":"VIE SOCIALE","CODE_POSTAL":44300,"WEB":null,"STATUT":"Municipal","TELEPHONE":"02 40 40 15 90","THEME":12,"COMMUNE":"NANTES","LIBCATEGORIE":"Petite enfance","ADRESSE":"7 Rue Santos Dumont","LIBTYPE":"Multi-accueil (Crèche)","_IDOBJ":910,"TYPE":120101,"CATEGORIE":1201},"geometry":{"type":"Point","coordinates":[-1.56722253488816,47.2597003805246]}},{"type":"Feature","properties":{"geo":{"name":"Crèche CHU Les Petits Pirates"},"_l":[47.1990104631586,-1.52953508021113],"LIBTHEME":"VIE SOCIALE","CODE_POSTAL":44200,"WEB":null,"STATUT":"Non Municipal","TELEPHONE":"02 40 08 71 07","THEME":12,"COMMUNE":"NANTES","LIBCATEGORIE":"Petite enfance","ADRESSE":"52 Route de Saint Sébastien","LIBTYPE":"Multi-accueil (Crèche)","_IDOBJ":911,"TYPE":120101,"CATEGORIE":1201},"geometry":{"type":"Point","coordinates":[-1.52953508021113,47.1990104631586]}},{"type":"Feature","properties":{"geo":{"name":"Multi-accueil Petite Enfance Sully"},"_l":[47.2225234281522,-1.54989270013633],"LIBTHEME":"VIE SOCIALE","CODE_POSTAL":44000,"WEB":null,"STATUT":"Municipal","TELEPHONE":"02 40 29 82 15","THEME":12,"COMMUNE":"NANTES","LIBCATEGORIE":"Petite enfance","ADRESSE":"7 Allée de la Reine Margot","LIBTYPE":"Multi-accueil (Crèche)","_IDOBJ":912,"TYPE":120101,"CATEGORIE":1201},"geometry":{"type":"Point","coordinates":[-1.54989270013633,47.2225234281522]}},{"type":"Feature","properties":{"geo":{"name":"Multi-accueil Ti Canailloux"},"_l":[47.2628150763302,-1.57998346626898],"LIBTHEME":"VIE SOCIALE","CODE_POSTAL":44300,"WEB":null,"STATUT":"Non Municipal","TELEPHONE":"02 40 76 12 78","THEME":12,"COMMUNE":"NANTES","LIBCATEGORIE":"Petite enfance","ADRESSE":"71B Avenue du Bout des Landes","LIBTYPE":"Multi-accueil (Crèche)","_IDOBJ":914,"TYPE":120101,"CATEGORIE":1201},"geometry":{"type":"Point","coordinates":[-1.57998346626898,47.2628150763302]}},{"type":"Feature","properties":{"geo":{"name":"Crèche Associative Une Souris Verte 2"},"_l":[47.2081709430759,-1.59517115722973],"LIBTHEME":"VIE SOCIALE","CODE_POSTAL":44100,"WEB":null,"STATUT":"Non Municipal","TELEPHONE":"02 72 34 20 72","THEME":12,"COMMUNE":"NANTES","LIBCATEGORIE":"Petite enfance","ADRESSE":"1 Impasse Brochard","LIBTYPE":"Multi-accueil (Crèche)","_IDOBJ":916,"TYPE":120101,"CATEGORIE":1201},"geometry":{"type":"Point","coordinates":[-1.59517115722973,47.2081709430759]}},{"type":"Feature","properties":{"geo":{"name":"Restaurant Associatif Santos Dumont"},"_l":[47.2601219530236,-1.56715699577868],"LIBTHEME":"VIE SOCIALE","CODE_POSTAL":44300,"WEB":null,"STATUT":"Privé","TELEPHONE":"02 40 59 63 21","THEME":12,"COMMUNE":"NANTES","LIBCATEGORIE":"Personne agée","ADRESSE":"11 Rue Santos Dumont","LIBTYPE":"Restaurant club","_IDOBJ":918,"TYPE":120405,"CATEGORIE":1204},"geometry":{"type":"Point","coordinates":[-1.56715699577868,47.2601219530236]}},{"type":"Feature","properties":{"geo":{"name":"Domicile Collectif Broussais"},"_l":[47.2264522745376,-1.5207973046103],"LIBTHEME":"VIE SOCIALE","CODE_POSTAL":44300,"WEB":null,"STATUT":"Privé","TELEPHONE":"02 40 50 14 00","THEME":12,"COMMUNE":"NANTES","LIBCATEGORIE":"Personne agée","ADRESSE":"35 Boulevard Louis Millet","LIBTYPE":"Logement","_IDOBJ":919,"TYPE":120402,"CATEGORIE":1204},"geometry":{"type":"Point","coordinates":[-1.5207973046103,47.2264522745376]}},{"type":"Feature","properties":{"geo":{"name":"Domicile Collectif Butte Sainte Anne"},"_l":[47.2026896275684,-1.579948143007],"LIBTHEME":"VIE SOCIALE","CODE_POSTAL":44100,"WEB":null,"STATUT":"Privé","TELEPHONE":"02 40 69 18 36","THEME":12,"COMMUNE":"NANTES","LIBCATEGORIE":"Personne agée","ADRESSE":"8 Rue Saint Gohard","LIBTYPE":"Logement","_IDOBJ":920,"TYPE":120402,"CATEGORIE":1204},"geometry":{"type":"Point","coordinates":[-1.579948143007,47.2026896275684]}},{"type":"Feature","properties":{"geo":{"name":"Unité Soins Longue Durée Le Doyenné Roz Arvor"},"_l":[47.26629090843,-1.5272501838465],"LIBTHEME":"VIE SOCIALE","CODE_POSTAL":44300,"WEB":null,"STATUT":"Privé","TELEPHONE":"02 40 68 39 00","THEME":12,"COMMUNE":"NANTES","LIBCATEGORIE":"Personne agée","ADRESSE":"2 Rue du Fort","LIBTYPE":"Unité de soins","_IDOBJ":922,"TYPE":120406,"CATEGORIE":1204},"geometry":{"type":"Point","coordinates":[-1.5272501838465,47.26629090843]}},{"type":"Feature","properties":{"geo":{"name":"Foyer Logement Les Demeures du Parc"},"_l":[47.2274827492644,-1.52051645746641],"LIBTHEME":"VIE SOCIALE","CODE_POSTAL":44300,"WEB":null,"STATUT":"Privé","TELEPHONE":"02 40 14 40 14","THEME":12,"COMMUNE":"NANTES","LIBCATEGORIE":"Personne agée","ADRESSE":"28 Rue Corentin Bourveau","LIBTYPE":"Logement","_IDOBJ":923,"TYPE":120402,"CATEGORIE":1204},"geometry":{"type":"Point","coordinates":[-1.52051645746641,47.2274827492644]}},{"type":"Feature","properties":{"geo":{"name":"Résidence Service Les Jardins d'Arcadie"},"_l":[47.2280272829206,-1.56116497572606],"LIBTHEME":"VIE SOCIALE","CODE_POSTAL":44000,"WEB":null,"STATUT":"Privé","TELEPHONE":"02 40 29 30 30","THEME":12,"COMMUNE":"NANTES","LIBCATEGORIE":"Personne agée","ADRESSE":"130 Rue Paul Bellamy","LIBTYPE":"Résidence service","_IDOBJ":924,"TYPE":120404,"CATEGORIE":1204},"geometry":{"type":"Point","coordinates":[-1.56116497572606,47.2280272829206]}},{"type":"Feature","properties":{"geo":{"name":"Accueil de Jour Les Petits Frères des Pauvres"},"_l":[47.2253627835317,-1.54379982098357],"LIBTHEME":"VIE SOCIALE","CODE_POSTAL":44000,"WEB":null,"STATUT":"Privé","TELEPHONE":"02 51 81 05 26","THEME":12,"COMMUNE":"NANTES","LIBCATEGORIE":"Personne agée","ADRESSE":"121 Rue Général Buat","LIBTYPE":"Accueil personne agée","_IDOBJ":925,"TYPE":120401,"CATEGORIE":1204},"geometry":{"type":"Point","coordinates":[-1.54379982098357,47.2253627835317]}},{"type":"Feature","properties":{"geo":{"name":"Maison de Retraite Le Parc de Diane"},"_l":[47.2004688019803,-1.52763474329208],"LIBTHEME":"VIE SOCIALE","CODE_POSTAL":44200,"WEB":null,"STATUT":"Privé","TELEPHONE":"02 51 79 52 00","THEME":12,"COMMUNE":"NANTES","LIBCATEGORIE":"Personne agée","ADRESSE":"16 Rue de la Fonderie","LIBTYPE":"Maison de retraite","_IDOBJ":926,"TYPE":120403,"CATEGORIE":1204},"geometry":{"type":"Point","coordinates":[-1.52763474329208,47.2004688019803]}},{"type":"Feature","properties":{"geo":{"name":"Maison de Retraite Résidence Anne de Bretagne"},"_l":[47.2203747879093,-1.56095264289119],"LIBTHEME":"VIE SOCIALE","CODE_POSTAL":44000,"WEB":null,"STATUT":"Privé","TELEPHONE":"02 40 89 79 62","THEME":12,"COMMUNE":"NANTES","LIBCATEGORIE":"Personne agée","ADRESSE":"5 Place du Martray","LIBTYPE":"Maison de retraite","_IDOBJ":927,"TYPE":120403,"CATEGORIE":1204},"geometry":{"type":"Point","coordinates":[-1.56095264289119,47.2203747879093]}},{"type":"Feature","properties":{"geo":{"name":"Maison de Retraite La Grande Providence"},"_l":[47.2222718335089,-1.54412949456868],"LIBTHEME":"VIE SOCIALE","CODE_POSTAL":44000,"WEB":null,"STATUT":"Privé","TELEPHONE":"02 40 74 39 17","THEME":12,"COMMUNE":"NANTES","LIBCATEGORIE":"Personne agée","ADRESSE":"87 Rue Gaston Turpin","LIBTYPE":"Maison de retraite","_IDOBJ":928,"TYPE":120403,"CATEGORIE":1204},"geometry":{"type":"Point","coordinates":[-1.54412949456868,47.2222718335089]}},{"type":"Feature","properties":{"geo":{"name":"Résidence Service Le Bel Age"},"_l":[47.2284023335448,-1.5713924474483],"LIBTHEME":"VIE SOCIALE","CODE_POSTAL":44000,"WEB":null,"STATUT":"Privé","TELEPHONE":"02 40 59 58 58","THEME":12,"COMMUNE":"NANTES","LIBCATEGORIE":"Personne agée","ADRESSE":"151 Rue des Hauts Pavés","LIBTYPE":"Résidence service","_IDOBJ":930,"TYPE":120404,"CATEGORIE":1204},"geometry":{"type":"Point","coordinates":[-1.5713924474483,47.2284023335448]}},{"type":"Feature","properties":{"geo":{"name":"Résidence Service Les Renaissances"},"_l":[47.2102059997605,-1.56981893310608],"LIBTHEME":"VIE SOCIALE","CODE_POSTAL":44100,"WEB":null,"STATUT":"Privé","TELEPHONE":"02 40 69 17 90","THEME":12,"COMMUNE":"NANTES","LIBCATEGORIE":"Personne agée","ADRESSE":"17 Rue Dobrée","LIBTYPE":"Résidence service","_IDOBJ":931,"TYPE":120404,"CATEGORIE":1204},"geometry":{"type":"Point","coordinates":[-1.56981893310608,47.2102059997605]}},{"type":"Feature","properties":{"geo":{"name":"Restaurant du Bout des Landes"},"_l":[47.2650554402154,-1.57849985032723],"LIBTHEME":"VIE SOCIALE","CODE_POSTAL":44300,"WEB":null,"STATUT":"Public","TELEPHONE":"02 40 76 45 13","THEME":12,"COMMUNE":"NANTES","LIBCATEGORIE":"Personne agée","ADRESSE":"6B Rue de Concarneau","LIBTYPE":"Restaurant club","_IDOBJ":932,"TYPE":120405,"CATEGORIE":1204},"geometry":{"type":"Point","coordinates":[-1.57849985032723,47.2650554402154]}},{"type":"Feature","properties":{"geo":{"name":"Restaurant Club Le Croissant"},"_l":[47.2347759720625,-1.52157043206772],"LIBTHEME":"VIE SOCIALE","CODE_POSTAL":44300,"WEB":null,"STATUT":"Public","TELEPHONE":"02 40 49 44 38","THEME":12,"COMMUNE":"NANTES","LIBCATEGORIE":"Personne agée","ADRESSE":"27 Rue du Croissant","LIBTYPE":"Restaurant club","_IDOBJ":933,"TYPE":120405,"CATEGORIE":1204},"geometry":{"type":"Point","coordinates":[-1.52157043206772,47.2347759720625]}},{"type":"Feature","properties":{"geo":{"name":"Accueil Temporaire Le Repos de Procé"},"_l":[47.2205042504799,-1.58434556847933],"LIBTHEME":"VIE SOCIALE","CODE_POSTAL":44100,"WEB":null,"STATUT":"Privé","TELEPHONE":"02 40 95 29 60","THEME":12,"COMMUNE":"NANTES","LIBCATEGORIE":"Personne agée","ADRESSE":"27 Rue Condorcet","LIBTYPE":"Accueil personne agée","_IDOBJ":934,"TYPE":120401,"CATEGORIE":1204},"geometry":{"type":"Point","coordinates":[-1.58434556847933,47.2205042504799]}},{"type":"Feature","properties":{"geo":{"name":"Restaurant Club Pin Sec"},"_l":[47.2430790176275,-1.52189964915151],"LIBTHEME":"VIE SOCIALE","CODE_POSTAL":44300,"WEB":null,"STATUT":"Public","TELEPHONE":"02 51 89 02 48","THEME":12,"COMMUNE":"NANTES","LIBCATEGORIE":"Personne agée","ADRESSE":"3 Rue de Valenciennes","LIBTYPE":"Restaurant club","_IDOBJ":935,"TYPE":120405,"CATEGORIE":1204},"geometry":{"type":"Point","coordinates":[-1.52189964915151,47.2430790176275]}},{"type":"Feature","properties":{"geo":{"name":"Centre de Loisirs Santos Dumont ACCOORD"},"_l":[47.2598006314565,-1.56719042784691],"LIBTHEME":"VIE SOCIALE","CODE_POSTAL":44300,"WEB":null,"STATUT":null,"TELEPHONE":"02 40 94 11 79","THEME":12,"COMMUNE":"NANTES","LIBCATEGORIE":"Jeunesse","ADRESSE":"7 Rue Santos Dumont","LIBTYPE":"Centre de loisirs","_IDOBJ":938,"TYPE":120201,"CATEGORIE":1202},"geometry":{"type":"Point","coordinates":[-1.56719042784691,47.2598006314565]}},{"type":"Feature","properties":{"geo":{"name":"Espace Animation Beaulieu"},"_l":[47.2081889357792,-1.52676847942684],"LIBTHEME":"VIE SOCIALE","CODE_POSTAL":44200,"WEB":null,"STATUT":null,"TELEPHONE":"02 51 72 39 82","THEME":12,"COMMUNE":"NANTES","LIBCATEGORIE":"Jeunesse","ADRESSE":"4 Rue Marc Vaubourgoin","LIBTYPE":"Centre de loisirs","_IDOBJ":940,"TYPE":120201,"CATEGORIE":1202},"geometry":{"type":"Point","coordinates":[-1.52676847942684,47.2081889357792]}},{"type":"Feature","properties":{"geo":{"name":"Pôle associatif Dupleix Barbinais"},"_l":[47.2038321799828,-1.57790375671006],"LIBTHEME":"VIE SOCIALE","CODE_POSTAL":44100,"WEB":null,"STATUT":null,"TELEPHONE":"02 40 73 06 79","THEME":12,"COMMUNE":"NANTES","LIBCATEGORIE":"Vie associative","ADRESSE":"14 Rue de la Barbinais","LIBTYPE":"Pôle associatif","_IDOBJ":948,"TYPE":120502,"CATEGORIE":1205},"geometry":{"type":"Point","coordinates":[-1.57790375671006,47.2038321799828]}},{"type":"Feature","properties":{"geo":{"name":"Pôle associatif Hauts Pavés"},"_l":[47.2241912838444,-1.56387846396922],"LIBTHEME":"VIE SOCIALE","CODE_POSTAL":44000,"WEB":null,"STATUT":null,"TELEPHONE":"02 40 29 40 66","THEME":12,"COMMUNE":"NANTES","LIBCATEGORIE":"Vie associative","ADRESSE":"42 Rue des Hauts Pavés","LIBTYPE":"Pôle associatif","_IDOBJ":949,"TYPE":120502,"CATEGORIE":1205},"geometry":{"type":"Point","coordinates":[-1.56387846396922,47.2241912838444]}},{"type":"Feature","properties":{"geo":{"name":"Espaces d'Animation Saint Joseph"},"_l":[47.2690994177155,-1.51955864092386],"LIBTHEME":"VIE SOCIALE","CODE_POSTAL":44300,"WEB":null,"STATUT":null,"TELEPHONE":"02 40 30 19 39","THEME":12,"COMMUNE":"NANTES","LIBCATEGORIE":"Jeunesse","ADRESSE":"478 Route de Saint Joseph","LIBTYPE":"Centre de loisirs","_IDOBJ":950,"TYPE":120201,"CATEGORIE":1202},"geometry":{"type":"Point","coordinates":[-1.51955864092386,47.2690994177155]}},{"type":"Feature","properties":{"geo":{"name":"Salle municipale Bonnaire"},"_l":[47.2422236398524,-1.5289306275649],"LIBTHEME":"VIE SOCIALE","CODE_POSTAL":44300,"WEB":"www.nantes.fr","STATUT":null,"TELEPHONE":"02 40 50 48 35","THEME":12,"COMMUNE":"NANTES","LIBCATEGORIE":"Vie associative","ADRESSE":"1 Rue de Koufra","LIBTYPE":"Salle associative","_IDOBJ":951,"TYPE":120503,"CATEGORIE":1205},"geometry":{"type":"Point","coordinates":[-1.5289306275649,47.2422236398524]}},{"type":"Feature","properties":{"geo":{"name":"Salle municipale Coligny"},"_l":[47.2190937961708,-1.56402938691334],"LIBTHEME":"VIE SOCIALE","CODE_POSTAL":44000,"WEB":"www.nantes.fr","STATUT":null,"TELEPHONE":"02 40 20 20 68","THEME":12,"COMMUNE":"NANTES","LIBCATEGORIE":"Vie associative","ADRESSE":"15B Place Edouard Normand","LIBTYPE":"Salle associative","_IDOBJ":952,"TYPE":120503,"CATEGORIE":1205},"geometry":{"type":"Point","coordinates":[-1.56402938691334,47.2190937961708]}},{"type":"Feature","properties":{"geo":{"name":"Maison des Habitants et du Citoyen"},"_l":[47.2042118852995,-1.60495624817648],"LIBTHEME":"VIE SOCIALE","CODE_POSTAL":44100,"WEB":null,"STATUT":null,"TELEPHONE":"02 51 80 79 47","THEME":12,"COMMUNE":"NANTES","LIBCATEGORIE":"Vie associative","ADRESSE":"1 Place des Lauriers","LIBTYPE":"Maison de quartier","_IDOBJ":954,"TYPE":120504,"CATEGORIE":1205},"geometry":{"type":"Point","coordinates":[-1.60495624817648,47.2042118852995]}},{"type":"Feature","properties":{"geo":{"name":"Centre socioculturel Boissière - ACCOORD"},"_l":[47.2544881966857,-1.56717370687528],"LIBTHEME":"VIE SOCIALE","CODE_POSTAL":44300,"WEB":"www.accoord.fr","STATUT":null,"TELEPHONE":"02 40 76 96 85","THEME":12,"COMMUNE":"NANTES","LIBCATEGORIE":"Vie associative","ADRESSE":"9B Rue Jean De La Bruyère","LIBTYPE":"Centre socioculturel","_IDOBJ":967,"TYPE":120505,"CATEGORIE":1205},"geometry":{"type":"Point","coordinates":[-1.56717370687528,47.2544881966857]}},{"type":"Feature","properties":{"geo":{"name":"Foyer Jeunes Travailleurs Port Beaulieu"},"_l":[47.2060855308096,-1.54317922705893],"LIBTHEME":"VIE SOCIALE","CODE_POSTAL":44200,"WEB":null,"STATUT":null,"TELEPHONE":"02 40 12 24 00","THEME":12,"COMMUNE":"NANTES","LIBCATEGORIE":"Jeunesse","ADRESSE":"9 Boulevard Vincent Gâche","LIBTYPE":"Foyer","_IDOBJ":1028,"TYPE":120202,"CATEGORIE":1202},"geometry":{"type":"Point","coordinates":[-1.54317922705893,47.2060855308096]}},{"type":"Feature","properties":{"geo":{"name":"Multi-accueil Petite Enfance La Pilotière"},"_l":[47.2452148495799,-1.52409796093161],"LIBTHEME":"VIE SOCIALE","CODE_POSTAL":44300,"WEB":null,"STATUT":"Municipal","TELEPHONE":"02 28 23 52 28","THEME":12,"COMMUNE":"NANTES","LIBCATEGORIE":"Petite enfance","ADRESSE":"31 Rue des Platanes","LIBTYPE":"Multi-accueil (Crèche)","_IDOBJ":1070,"TYPE":120101,"CATEGORIE":1201},"geometry":{"type":"Point","coordinates":[-1.52409796093161,47.2452148495799]}},{"type":"Feature","properties":{"geo":{"name":"Centre Régional Information Jeunesse Pays de la Loire"},"_l":[47.2186053075286,-1.555354428925],"LIBTHEME":"VIE SOCIALE","CODE_POSTAL":44000,"WEB":"www.infos-jeunes.f","STATUT":null,"TELEPHONE":"02 51 72 94 50","THEME":12,"COMMUNE":"NANTES","LIBCATEGORIE":"Jeunesse","ADRESSE":"37 Rue Saint Léonard","LIBTYPE":"Locaux jeunes","_IDOBJ":1080,"TYPE":120203,"CATEGORIE":1202},"geometry":{"type":"Point","coordinates":[-1.555354428925,47.2186053075286]}},{"type":"Feature","properties":{"geo":{"name":"Restaurant Club Clos Toreau"},"_l":[47.1949676193952,-1.52685771850454],"LIBTHEME":"VIE SOCIALE","CODE_POSTAL":44200,"WEB":null,"STATUT":"Public","TELEPHONE":"02 40 03 35 22","THEME":12,"COMMUNE":"NANTES","LIBCATEGORIE":"Personne agée","ADRESSE":"2 Rue de Saint Jean de Luz","LIBTYPE":"Restaurant club","_IDOBJ":1081,"TYPE":120405,"CATEGORIE":1204},"geometry":{"type":"Point","coordinates":[-1.52685771850454,47.1949676193952]}},{"type":"Feature","properties":{"geo":{"name":"Centre socioculturel des Bourderies - ACCOORD"},"_l":[47.2067784099449,-1.5962547293037],"LIBTHEME":"VIE SOCIALE","CODE_POSTAL":44100,"WEB":"www.accoord.fr","STATUT":null,"TELEPHONE":"02 40 46 41 46","THEME":12,"COMMUNE":"NANTES","LIBCATEGORIE":"Vie associative","ADRESSE":"2A Rue de Saint Brévin","LIBTYPE":"Centre socioculturel","_IDOBJ":1096,"TYPE":120505,"CATEGORIE":1205},"geometry":{"type":"Point","coordinates":[-1.5962547293037,47.2067784099449]}},{"type":"Feature","properties":{"geo":{"name":"Salle municipale Joliot Curie"},"_l":[47.1943095426315,-1.53177711503725],"LIBTHEME":"VIE SOCIALE","CODE_POSTAL":44200,"WEB":"www.nantes.fr","STATUT":null,"TELEPHONE":"02 40 75 08 47","THEME":12,"COMMUNE":"NANTES","LIBCATEGORIE":"Vie associative","ADRESSE":"67 Boulevard Joliot Curie","LIBTYPE":"Salle associative","_IDOBJ":1099,"TYPE":120503,"CATEGORIE":1205},"geometry":{"type":"Point","coordinates":[-1.53177711503725,47.1943095426315]}},{"type":"Feature","properties":{"geo":{"name":"Pôle associatif Harouys"},"_l":[47.2175465885138,-1.56595628517282],"LIBTHEME":"VIE SOCIALE","CODE_POSTAL":44000,"WEB":null,"STATUT":null,"TELEPHONE":null,"THEME":12,"COMMUNE":"NANTES","LIBCATEGORIE":"Vie associative","ADRESSE":"3 Rue Harouys","LIBTYPE":"Pôle associatif","_IDOBJ":1101,"TYPE":120502,"CATEGORIE":1205},"geometry":{"type":"Point","coordinates":[-1.56595628517282,47.2175465885138]}},{"type":"Feature","properties":{"geo":{"name":"Pôle associatif Grand Blottereau"},"_l":[47.228440679692,-1.51294690559353],"LIBTHEME":"VIE SOCIALE","CODE_POSTAL":44300,"WEB":null,"STATUT":null,"TELEPHONE":"02 40 50 50 11","THEME":12,"COMMUNE":"NANTES","LIBCATEGORIE":"Vie associative","ADRESSE":"16 Boulevard Auguste Péneau","LIBTYPE":"Pôle associatif","_IDOBJ":1102,"TYPE":120502,"CATEGORIE":1205},"geometry":{"type":"Point","coordinates":[-1.51294690559353,47.228440679692]}},{"type":"Feature","properties":{"geo":{"name":"Pôle associatif du Ranzay"},"_l":[47.2499415022214,-1.52887085348511],"LIBTHEME":"VIE SOCIALE","CODE_POSTAL":44300,"WEB":null,"STATUT":null,"TELEPHONE":"02 40 50 11 59","THEME":12,"COMMUNE":"NANTES","LIBCATEGORIE":"Vie associative","ADRESSE":"2B Rue Hermann Geiger","LIBTYPE":"Pôle associatif","_IDOBJ":1105,"TYPE":120502,"CATEGORIE":1205},"geometry":{"type":"Point","coordinates":[-1.52887085348511,47.2499415022214]}},{"type":"Feature","properties":{"geo":{"name":"Salle municipale Deshoulières"},"_l":[47.2182386437687,-1.56548099734189],"LIBTHEME":"VIE SOCIALE","CODE_POSTAL":44000,"WEB":"www.nantes.fr","STATUT":null,"TELEPHONE":"02 40 48 73 23","THEME":12,"COMMUNE":"NANTES","LIBCATEGORIE":"Vie associative","ADRESSE":"30 Rue Deshoulières","LIBTYPE":"Salle associative","_IDOBJ":1106,"TYPE":120503,"CATEGORIE":1205},"geometry":{"type":"Point","coordinates":[-1.56548099734189,47.2182386437687]}},{"type":"Feature","properties":{"geo":{"name":"Pôle associatif Félix Thomas"},"_l":[47.2316711125518,-1.55311203603983],"LIBTHEME":"VIE SOCIALE","CODE_POSTAL":44000,"WEB":null,"STATUT":null,"TELEPHONE":"02 51 81 01 76","THEME":12,"COMMUNE":"NANTES","LIBCATEGORIE":"Vie associative","ADRESSE":"39 Rue Félix Thomas","LIBTYPE":"Pôle associatif","_IDOBJ":1107,"TYPE":120502,"CATEGORIE":1205},"geometry":{"type":"Point","coordinates":[-1.55311203603983,47.2316711125518]}},{"type":"Feature","properties":{"geo":{"name":"Salle municipale Gay-Lussac"},"_l":[47.227995583065,-1.52089071789257],"LIBTHEME":"VIE SOCIALE","CODE_POSTAL":44300,"WEB":"www.nantes.fr","STATUT":null,"TELEPHONE":"02 40 50 75 96","THEME":12,"COMMUNE":"NANTES","LIBCATEGORIE":"Vie associative","ADRESSE":"19 Rue Corentin Bourveau","LIBTYPE":"Salle associative","_IDOBJ":1111,"TYPE":120503,"CATEGORIE":1205},"geometry":{"type":"Point","coordinates":[-1.52089071789257,47.227995583065]}},{"type":"Feature","properties":{"geo":{"name":"Pôle associatif Cormier"},"_l":[47.2177052155402,-1.60004385986511],"LIBTHEME":"VIE SOCIALE","CODE_POSTAL":44100,"WEB":null,"STATUT":null,"TELEPHONE":"02 40 43 01 09","THEME":12,"COMMUNE":"NANTES","LIBCATEGORIE":"Vie associative","ADRESSE":"4 Rue du Cormier","LIBTYPE":"Pôle associatif","_IDOBJ":1113,"TYPE":120502,"CATEGORIE":1205},"geometry":{"type":"Point","coordinates":[-1.60004385986511,47.2177052155402]}},{"type":"Feature","properties":{"geo":{"name":"Multi-accueil Petite Enfance Nouvelle Vague"},"_l":[47.2224328438944,-1.56035067171581],"LIBTHEME":"VIE SOCIALE","CODE_POSTAL":44000,"WEB":null,"STATUT":"Municipal","TELEPHONE":"02 40 20 06 50","THEME":12,"COMMUNE":"NANTES","LIBCATEGORIE":"Petite enfance","ADRESSE":"12 Rue de Savenay","LIBTYPE":"Multi-accueil (Crèche)","_IDOBJ":1116,"TYPE":120101,"CATEGORIE":1201},"geometry":{"type":"Point","coordinates":[-1.56035067171581,47.2224328438944]}},{"type":"Feature","properties":{"geo":{"name":"Centre socioculturel Petite-Sensive - ACCOORD"},"_l":[47.2585375614036,-1.56628696842652],"LIBTHEME":"VIE SOCIALE","CODE_POSTAL":44300,"WEB":"www.accoord.fr","STATUT":null,"TELEPHONE":"02 40 40 69 63","THEME":12,"COMMUNE":"NANTES","LIBCATEGORIE":"Vie associative","ADRESSE":"48 Rue Lieutenant Jean de Sesmaisons","LIBTYPE":"Centre socioculturel","_IDOBJ":1117,"TYPE":120505,"CATEGORIE":1205},"geometry":{"type":"Point","coordinates":[-1.56628696842652,47.2585375614036]}},{"type":"Feature","properties":{"geo":{"name":"Accueil de Loisirs Cloé ACCOORD"},"_l":[47.2540722143136,-1.56333307724407],"LIBTHEME":"VIE SOCIALE","CODE_POSTAL":44300,"WEB":null,"STATUT":null,"TELEPHONE":"02 40 40 91 26","THEME":12,"COMMUNE":"NANTES","LIBCATEGORIE":"Jeunesse","ADRESSE":"4 Rue des Renards","LIBTYPE":"Centre de loisirs","_IDOBJ":1124,"TYPE":120201,"CATEGORIE":1202},"geometry":{"type":"Point","coordinates":[-1.56333307724407,47.2540722143136]}},{"type":"Feature","properties":{"geo":{"name":"Multi-accueil Petite Enfance Beaulieu"},"_l":[47.2083959780662,-1.52683629197219],"LIBTHEME":"VIE SOCIALE","CODE_POSTAL":44200,"WEB":null,"STATUT":"Municipal","TELEPHONE":"02 40 47 03 05","THEME":12,"COMMUNE":"NANTES","LIBCATEGORIE":"Petite enfance","ADRESSE":"13 Rue Paul Nassivet","LIBTYPE":"Multi-accueil (Crèche)","_IDOBJ":1152,"TYPE":120101,"CATEGORIE":1201},"geometry":{"type":"Point","coordinates":[-1.52683629197219,47.2083959780662]}},{"type":"Feature","properties":{"geo":{"name":"Résidence Universitaire Santeuil"},"_l":[47.2134845082727,-1.56020539796668],"LIBTHEME":"VIE SOCIALE","CODE_POSTAL":44000,"WEB":null,"STATUT":null,"TELEPHONE":"02 40 73 73 84","THEME":12,"COMMUNE":"NANTES","LIBCATEGORIE":"Etudiant","ADRESSE":"14 Rue Santeuil","LIBTYPE":"Résidence universitaire","_IDOBJ":1223,"TYPE":120302,"CATEGORIE":1203},"geometry":{"type":"Point","coordinates":[-1.56020539796668,47.2134845082727]}},{"type":"Feature","properties":{"geo":{"name":"Multi-accueil Petite Enfance Madeleine"},"_l":[47.2042524481021,-1.54781625241265],"LIBTHEME":"VIE SOCIALE","CODE_POSTAL":44200,"WEB":null,"STATUT":"Municipal","TELEPHONE":"02 40 89 38 88","THEME":12,"COMMUNE":"NANTES","LIBCATEGORIE":"Petite enfance","ADRESSE":"1 Rue de la Porte Gellée","LIBTYPE":"Multi-accueil (Crèche)","_IDOBJ":1230,"TYPE":120101,"CATEGORIE":1201},"geometry":{"type":"Point","coordinates":[-1.54781625241265,47.2042524481021]}},{"type":"Feature","properties":{"geo":{"name":"Salle municipale Jules Vallès"},"_l":[47.2115272964498,-1.56246187001213],"LIBTHEME":"VIE SOCIALE","CODE_POSTAL":44000,"WEB":"www.nantes.fr","STATUT":null,"TELEPHONE":"02 40 41 68 59","THEME":12,"COMMUNE":"NANTES","LIBCATEGORIE":"Vie associative","ADRESSE":"15 Rue de l'Héronnière","LIBTYPE":"Salle associative","_IDOBJ":1248,"TYPE":120503,"CATEGORIE":1205},"geometry":{"type":"Point","coordinates":[-1.56246187001213,47.2115272964498]}},{"type":"Feature","properties":{"geo":{"name":"Accueil de Loisirs Ange Guépin"},"_l":[47.2179792097334,-1.51938665649511],"LIBTHEME":"VIE SOCIALE","CODE_POSTAL":44000,"WEB":"www.accoordnantes.info","STATUT":null,"TELEPHONE":"02 40 08 22 54","THEME":12,"COMMUNE":"NANTES","LIBCATEGORIE":"Jeunesse","ADRESSE":"Rue de la Révolution des Oeillets","LIBTYPE":"Centre de loisirs","_IDOBJ":1262,"TYPE":120201,"CATEGORIE":1202},"geometry":{"type":"Point","coordinates":[-1.51938665649511,47.2179792097334]}},{"type":"Feature","properties":{"geo":{"name":"Centre de Loisirs Perray ACCOORD"},"_l":[47.2470913029307,-1.51249942978735],"LIBTHEME":"VIE SOCIALE","CODE_POSTAL":44300,"WEB":null,"STATUT":null,"TELEPHONE":"02 40 52 33 06","THEME":12,"COMMUNE":"NANTES","LIBCATEGORIE":"Jeunesse","ADRESSE":"7 Rue Frédéric Mistral","LIBTYPE":"Centre de loisirs","_IDOBJ":1263,"TYPE":120201,"CATEGORIE":1202},"geometry":{"type":"Point","coordinates":[-1.51249942978735,47.2470913029307]}},{"type":"Feature","properties":{"geo":{"name":"Centre de Loisirs Petite Sensive ACCOORD"},"_l":[47.2616176188386,-1.56657925614553],"LIBTHEME":"VIE SOCIALE","CODE_POSTAL":44300,"WEB":null,"STATUT":null,"TELEPHONE":"02 40 76 15 43","THEME":12,"COMMUNE":"NANTES","LIBCATEGORIE":"Jeunesse","ADRESSE":"23 Rue du Paraguay","LIBTYPE":"Centre de loisirs","_IDOBJ":1265,"TYPE":120201,"CATEGORIE":1202},"geometry":{"type":"Point","coordinates":[-1.56657925614553,47.2616176188386]}},{"type":"Feature","properties":{"geo":{"name":"Centre de Loisirs Bout des Landes Bruyères ACCOORD"},"_l":[47.2661211431866,-1.57840110855523],"LIBTHEME":"VIE SOCIALE","CODE_POSTAL":44300,"WEB":null,"STATUT":null,"TELEPHONE":"02 40 40 91 01","THEME":12,"COMMUNE":"NANTES","LIBCATEGORIE":"Jeunesse","ADRESSE":"12 Rue de Concarneau","LIBTYPE":"Centre de loisirs","_IDOBJ":1266,"TYPE":120201,"CATEGORIE":1202},"geometry":{"type":"Point","coordinates":[-1.57840110855523,47.2661211431866]}},{"type":"Feature","properties":{"geo":{"name":"Centre de Loisirs Clos du Cens ACCOORD"},"_l":[47.248448315992,-1.57461280809731],"LIBTHEME":"VIE SOCIALE","CODE_POSTAL":44300,"WEB":null,"STATUT":null,"TELEPHONE":"02 40 40 56 44","THEME":12,"COMMUNE":"NANTES","LIBCATEGORIE":"Jeunesse","ADRESSE":"19 Avenue du Clos du Cens","LIBTYPE":"Centre de loisirs","_IDOBJ":1267,"TYPE":120201,"CATEGORIE":1202},"geometry":{"type":"Point","coordinates":[-1.57461280809731,47.248448315992]}},{"type":"Feature","properties":{"geo":{"name":"Centre de Loisirs Bottière ACCOORD"},"_l":[47.2409362890364,-1.51820393849702],"LIBTHEME":"VIE SOCIALE","CODE_POSTAL":44300,"WEB":null,"STATUT":null,"TELEPHONE":"02 40 49 48 61","THEME":12,"COMMUNE":"NANTES","LIBCATEGORIE":"Jeunesse","ADRESSE":"2 Rue Urbain Le Verrier","LIBTYPE":"Centre de loisirs","_IDOBJ":1268,"TYPE":120201,"CATEGORIE":1202},"geometry":{"type":"Point","coordinates":[-1.51820393849702,47.2409362890364]}},{"type":"Feature","properties":{"geo":{"name":"Centre de Loisirs Manu ACCOORD"},"_l":[47.2198482751936,-1.53602580057569],"LIBTHEME":"VIE SOCIALE","CODE_POSTAL":44000,"WEB":null,"STATUT":null,"TELEPHONE":"02 40 29 36 35","THEME":12,"COMMUNE":"NANTES","LIBCATEGORIE":"Jeunesse","ADRESSE":"7 Cour Jules Durand","LIBTYPE":"Centre de loisirs","_IDOBJ":1269,"TYPE":120201,"CATEGORIE":1202},"geometry":{"type":"Point","coordinates":[-1.53602580057569,47.2198482751936]}},{"type":"Feature","properties":{"geo":{"name":"Résidence Service Charles Roger"},"_l":[47.219971890425,-1.5755880854228],"LIBTHEME":"VIE SOCIALE","CODE_POSTAL":44000,"WEB":null,"STATUT":"Privé","TELEPHONE":"02 40 20 50 40","THEME":12,"COMMUNE":"NANTES","LIBCATEGORIE":"Personne agée","ADRESSE":"65 Avenue Camus","LIBTYPE":"Résidence service","_IDOBJ":1296,"TYPE":120404,"CATEGORIE":1204},"geometry":{"type":"Point","coordinates":[-1.5755880854228,47.219971890425]}},{"type":"Feature","properties":{"geo":{"name":"Accueil Temporaire La Maison de Pirmil"},"_l":[47.1974977864344,-1.54040008449482],"LIBTHEME":"VIE SOCIALE","CODE_POSTAL":44200,"WEB":null,"STATUT":"Privé","TELEPHONE":"02 40 84 62 46","THEME":12,"COMMUNE":"NANTES","LIBCATEGORIE":"Personne agée","ADRESSE":"85 Rue Saint Jacques","LIBTYPE":"Accueil personne agée","_IDOBJ":1298,"TYPE":120401,"CATEGORIE":1204},"geometry":{"type":"Point","coordinates":[-1.54040008449482,47.1974977864344]}},{"type":"Feature","properties":{"geo":{"name":"Unite Soins Longue Durée CHU Maison de Pirmil"},"_l":[47.1980835439026,-1.54034247789413],"LIBTHEME":"VIE SOCIALE","CODE_POSTAL":44200,"WEB":null,"STATUT":"Public","TELEPHONE":"02 40 84 66 55","THEME":12,"COMMUNE":"NANTES","LIBCATEGORIE":"Personne agée","ADRESSE":"85 Rue Saint Jacques","LIBTYPE":"Unité de soins","_IDOBJ":1299,"TYPE":120406,"CATEGORIE":1204},"geometry":{"type":"Point","coordinates":[-1.54034247789413,47.1980835439026]}},{"type":"Feature","properties":{"geo":{"name":"Accueil Temporaire La Grande Providence"},"_l":[47.2221615759973,-1.54404164569722],"LIBTHEME":"VIE SOCIALE","CODE_POSTAL":44000,"WEB":null,"STATUT":"Privé","TELEPHONE":"02 40 74 39 17","THEME":12,"COMMUNE":"NANTES","LIBCATEGORIE":"Personne agée","ADRESSE":"87 Rue Gaston Turpin","LIBTYPE":"Accueil personne agée","_IDOBJ":1300,"TYPE":120401,"CATEGORIE":1204},"geometry":{"type":"Point","coordinates":[-1.54404164569722,47.2221615759973]}},{"type":"Feature","properties":{"geo":{"name":"Accueil Temporaire Saint Joseph"},"_l":[47.2226610872325,-1.54281607841909],"LIBTHEME":"VIE SOCIALE","CODE_POSTAL":44000,"WEB":null,"STATUT":"Privé","TELEPHONE":"02 51 86 01 80","THEME":12,"COMMUNE":"NANTES","LIBCATEGORIE":"Personne agée","ADRESSE":"63 Rue Gaston Turpin","LIBTYPE":"Accueil personne agée","_IDOBJ":1302,"TYPE":120401,"CATEGORIE":1204},"geometry":{"type":"Point","coordinates":[-1.54281607841909,47.2226610872325]}},{"type":"Feature","properties":{"geo":{"name":"Accueil Temporaire Le Parc de Diane"},"_l":[47.2003141373203,-1.52735597212916],"LIBTHEME":"VIE SOCIALE","CODE_POSTAL":44200,"WEB":null,"STATUT":"Privé","TELEPHONE":"02 51 79 52 00","THEME":12,"COMMUNE":"NANTES","LIBCATEGORIE":"Personne agée","ADRESSE":"16 Rue de la Fonderie","LIBTYPE":"Accueil personne agée","_IDOBJ":1303,"TYPE":120401,"CATEGORIE":1204},"geometry":{"type":"Point","coordinates":[-1.52735597212916,47.2003141373203]}},{"type":"Feature","properties":{"geo":{"name":"Accueil Temporaire Résidence La Chézalière"},"_l":[47.2209430732779,-1.58383963851435],"LIBTHEME":"VIE SOCIALE","CODE_POSTAL":44100,"WEB":null,"STATUT":"Privé","TELEPHONE":"02 51 84 78 47","THEME":12,"COMMUNE":"NANTES","LIBCATEGORIE":"Personne agée","ADRESSE":"46 Rue Condorcet","LIBTYPE":"Accueil personne agée","_IDOBJ":1304,"TYPE":120401,"CATEGORIE":1204},"geometry":{"type":"Point","coordinates":[-1.58383963851435,47.2209430732779]}},{"type":"Feature","properties":{"geo":{"name":"Accueil Temporaire Résidence Richebourg"},"_l":[47.2174549885528,-1.54684779153244],"LIBTHEME":"VIE SOCIALE","CODE_POSTAL":44000,"WEB":null,"STATUT":"Privé","TELEPHONE":"02 40 37 93 94","THEME":12,"COMMUNE":"NANTES","LIBCATEGORIE":"Personne agée","ADRESSE":"40 Rue de Richebourg","LIBTYPE":"Accueil personne agée","_IDOBJ":1305,"TYPE":120401,"CATEGORIE":1204},"geometry":{"type":"Point","coordinates":[-1.54684779153244,47.2174549885528]}},{"type":"Feature","properties":{"geo":{"name":"Restaurant Club Fonteny"},"_l":[47.2043208641207,-1.59195466196006],"LIBTHEME":"VIE SOCIALE","CODE_POSTAL":44100,"WEB":null,"STATUT":"Public","TELEPHONE":"02 40 43 06 15","THEME":12,"COMMUNE":"NANTES","LIBCATEGORIE":"Personne agée","ADRESSE":"27 Rue du Fonteny","LIBTYPE":"Restaurant club","_IDOBJ":1307,"TYPE":120405,"CATEGORIE":1204},"geometry":{"type":"Point","coordinates":[-1.59195466196006,47.2043208641207]}},{"type":"Feature","properties":{"geo":{"name":"Restaurant Club Port Boyer"},"_l":[47.2391452551977,-1.54194592150223],"LIBTHEME":"VIE SOCIALE","CODE_POSTAL":44300,"WEB":null,"STATUT":"Public","TELEPHONE":"02 40 49 97 07","THEME":12,"COMMUNE":"NANTES","LIBCATEGORIE":"Personne agée","ADRESSE":"4 Rue de la Turballe","LIBTYPE":"Restaurant club","_IDOBJ":1308,"TYPE":120405,"CATEGORIE":1204},"geometry":{"type":"Point","coordinates":[-1.54194592150223,47.2391452551977]}},{"type":"Feature","properties":{"geo":{"name":"Restaurant Club Pirmil"},"_l":[47.1944630815488,-1.54161398333601],"LIBTHEME":"VIE SOCIALE","CODE_POSTAL":44200,"WEB":null,"STATUT":"Public","TELEPHONE":"02 40 75 34 03","THEME":12,"COMMUNE":"NANTES","LIBCATEGORIE":"Personne agée","ADRESSE":"6 Avenue Laurent Bonnevay","LIBTYPE":"Restaurant club","_IDOBJ":1309,"TYPE":120405,"CATEGORIE":1204},"geometry":{"type":"Point","coordinates":[-1.54161398333601,47.1944630815488]}},{"type":"Feature","properties":{"geo":{"name":"Restaurant Club Malville"},"_l":[47.2317411115547,-1.58269576728897],"LIBTHEME":"VIE SOCIALE","CODE_POSTAL":44100,"WEB":null,"STATUT":"Public","TELEPHONE":"02 40 76 05 69","THEME":12,"COMMUNE":"NANTES","LIBCATEGORIE":"Personne agée","ADRESSE":"31 Rue de Malville","LIBTYPE":"Restaurant club","_IDOBJ":1310,"TYPE":120405,"CATEGORIE":1204},"geometry":{"type":"Point","coordinates":[-1.58269576728897,47.2317411115547]}},{"type":"Feature","properties":{"geo":{"name":"Crèche Associative Une Souris Verte 1"},"_l":[47.2059797506956,-1.57632978152533],"LIBTHEME":"VIE SOCIALE","CODE_POSTAL":44100,"WEB":null,"STATUT":"Non Municipal","TELEPHONE":"02 72 34 20 71","THEME":12,"COMMUNE":"NANTES","LIBCATEGORIE":"Petite enfance","ADRESSE":"13T Rue Bisson","LIBTYPE":"Multi-accueil (Crèche)","_IDOBJ":1311,"TYPE":120101,"CATEGORIE":1201},"geometry":{"type":"Point","coordinates":[-1.57632978152533,47.2059797506956]}},{"type":"Feature","properties":{"geo":{"name":"Comite ACCOORD Bellevue Chantenay"},"_l":[47.2078035131903,-1.60507612245133],"LIBTHEME":"VIE SOCIALE","CODE_POSTAL":44100,"WEB":null,"STATUT":null,"TELEPHONE":"02 40 58 54 90","THEME":12,"COMMUNE":"NANTES","LIBCATEGORIE":"Jeunesse","ADRESSE":"29 Rue du Jamet","LIBTYPE":"Centre de loisirs","_IDOBJ":1323,"TYPE":120201,"CATEGORIE":1202},"geometry":{"type":"Point","coordinates":[-1.60507612245133,47.2078035131903]}},{"type":"Feature","properties":{"geo":{"name":"Accueil de Loisirs l'Observatoire ACCOORD"},"_l":[47.2446031975727,-1.55928054747895],"LIBTHEME":"VIE SOCIALE","CODE_POSTAL":44300,"WEB":null,"STATUT":null,"TELEPHONE":"02 40 76 40 04","THEME":12,"COMMUNE":"NANTES","LIBCATEGORIE":"Jeunesse","ADRESSE":"4B Boulevard des Tribunes","LIBTYPE":"Centre de loisirs","_IDOBJ":1347,"TYPE":120201,"CATEGORIE":1202},"geometry":{"type":"Point","coordinates":[-1.55928054747895,47.2446031975727]}},{"type":"Feature","properties":{"geo":{"name":"Relais Accueil Petite Enfance Nord"},"_l":[47.2564126989408,-1.57610495679877],"LIBTHEME":"VIE SOCIALE","CODE_POSTAL":44300,"WEB":null,"STATUT":"Municipal","TELEPHONE":"02 40 41 95 70","THEME":12,"COMMUNE":"NANTES","LIBCATEGORIE":"Petite enfance","ADRESSE":"37 Route de la Chapelle Sur Erdre","LIBTYPE":"R.A.M.","_IDOBJ":1352,"TYPE":120102,"CATEGORIE":1201},"geometry":{"type":"Point","coordinates":[-1.57610495679877,47.2564126989408]}},{"type":"Feature","properties":{"geo":{"name":"Foyer Jeunes Travailleurs Edit de Nantes"},"_l":[47.2143456685545,-1.56861201165052],"LIBTHEME":"VIE SOCIALE","CODE_POSTAL":44100,"WEB":"http://www.edit-nantes.fr","STATUT":null,"TELEPHONE":"02 40 73 41 46","THEME":12,"COMMUNE":"NANTES","LIBCATEGORIE":"Jeunesse","ADRESSE":"7 Rue de Gigant","LIBTYPE":"Foyer","_IDOBJ":1355,"TYPE":120202,"CATEGORIE":1202},"geometry":{"type":"Point","coordinates":[-1.56861201165052,47.2143456685545]}},{"type":"Feature","properties":{"geo":{"name":"Lieu Accueil Parents Enfants La Marouette"},"_l":[47.2112725664472,-1.56808945319637],"LIBTHEME":"VIE SOCIALE","CODE_POSTAL":44100,"WEB":null,"STATUT":"Non Municipal","TELEPHONE":"02 40 71 84 68","THEME":12,"COMMUNE":"NANTES","LIBCATEGORIE":"Petite enfance","ADRESSE":"2B Rue Dobrée","LIBTYPE":"Multi-accueil (Crèche)","_IDOBJ":1375,"TYPE":120101,"CATEGORIE":1201},"geometry":{"type":"Point","coordinates":[-1.56808945319637,47.2112725664472]}},{"type":"Feature","properties":{"geo":{"name":"Foyer Jeunes Travailleurs Association Nantaise"},"_l":[47.2207020911686,-1.55881837640046],"LIBTHEME":"VIE SOCIALE","CODE_POSTAL":44000,"WEB":null,"STATUT":null,"TELEPHONE":"02 51 72 98 70","THEME":12,"COMMUNE":"NANTES","LIBCATEGORIE":"Jeunesse","ADRESSE":"6 Rue de Bel Air","LIBTYPE":"Foyer","_IDOBJ":1409,"TYPE":120202,"CATEGORIE":1202},"geometry":{"type":"Point","coordinates":[-1.55881837640046,47.2207020911686]}},{"type":"Feature","properties":{"geo":{"name":"Relais Accueil Petite Enfance Ouest"},"_l":[47.2043397416995,-1.60483904603373],"LIBTHEME":"VIE SOCIALE","CODE_POSTAL":44100,"WEB":null,"STATUT":"Municipal","TELEPHONE":"02 40 41 95 82","THEME":12,"COMMUNE":"NANTES","LIBCATEGORIE":"Petite enfance","ADRESSE":"1 Place des Lauriers","LIBTYPE":"R.A.M.","_IDOBJ":1438,"TYPE":120102,"CATEGORIE":1201},"geometry":{"type":"Point","coordinates":[-1.60483904603373,47.2043397416995]}},{"type":"Feature","properties":{"geo":{"name":"Maison de quartier des Haubans"},"_l":[47.2140929788499,-1.53034663465183],"LIBTHEME":"VIE SOCIALE","CODE_POSTAL":44000,"WEB":null,"STATUT":null,"TELEPHONE":null,"THEME":12,"COMMUNE":"NANTES","LIBCATEGORIE":"Vie associative","ADRESSE":"1 Boulevard de Berlin","LIBTYPE":"Maison de quartier","_IDOBJ":1445,"TYPE":120504,"CATEGORIE":1205},"geometry":{"type":"Point","coordinates":[-1.53034663465183,47.2140929788499]}},{"type":"Feature","properties":{"geo":{"name":"Résidence du Bout des Landes"},"_l":[47.2649156924262,-1.5786845175741],"LIBTHEME":"VIE SOCIALE","CODE_POSTAL":44300,"WEB":null,"STATUT":"Public","TELEPHONE":"02 40 76 44 15","THEME":12,"COMMUNE":"NANTES","LIBCATEGORIE":"Personne agée","ADRESSE":"6 Rue de Concarneau","LIBTYPE":"Logement","_IDOBJ":1492,"TYPE":120402,"CATEGORIE":1204},"geometry":{"type":"Point","coordinates":[-1.5786845175741,47.2649156924262]}},{"type":"Feature","properties":{"geo":{"name":"Foyer Logement Clos Toreau"},"_l":[47.1957611474408,-1.52812434125395],"LIBTHEME":"VIE SOCIALE","CODE_POSTAL":44200,"WEB":null,"STATUT":"Public","TELEPHONE":"02 40 34 12 63","THEME":12,"COMMUNE":"NANTES","LIBCATEGORIE":"Personne agée","ADRESSE":"4 Rue d'Hendaye","LIBTYPE":"Logement","_IDOBJ":1493,"TYPE":120402,"CATEGORIE":1204},"geometry":{"type":"Point","coordinates":[-1.52812434125395,47.1957611474408]}},{"type":"Feature","properties":{"geo":{"name":"Accueil Temporaire MAPAD Bréa"},"_l":[47.2107524209917,-1.56553624408553],"LIBTHEME":"VIE SOCIALE","CODE_POSTAL":44000,"WEB":null,"STATUT":"Public","TELEPHONE":"02 40 73 41 83","THEME":12,"COMMUNE":"NANTES","LIBCATEGORIE":"Personne agée","ADRESSE":"9 Rue de Bréa","LIBTYPE":"Accueil personne agée","_IDOBJ":1494,"TYPE":120401,"CATEGORIE":1204},"geometry":{"type":"Point","coordinates":[-1.56553624408553,47.2107524209917]}},{"type":"Feature","properties":{"geo":{"name":"Accueil Temporaire MAPAD Haute Mitrie"},"_l":[47.2312385597103,-1.524462349631],"LIBTHEME":"VIE SOCIALE","CODE_POSTAL":44300,"WEB":null,"STATUT":"Public","TELEPHONE":"02 40 52 27 92","THEME":12,"COMMUNE":"NANTES","LIBCATEGORIE":"Personne agée","ADRESSE":"13 Rue de la Haute Mitrie","LIBTYPE":"Accueil personne agée","_IDOBJ":1495,"TYPE":120401,"CATEGORIE":1204},"geometry":{"type":"Point","coordinates":[-1.524462349631,47.2312385597103]}},{"type":"Feature","properties":{"geo":{"name":"Salles municipales Mairie de Doulon"},"_l":[47.2273398235838,-1.51890592668631],"LIBTHEME":"VIE SOCIALE","CODE_POSTAL":44300,"WEB":"www.nantes.fr","STATUT":null,"TELEPHONE":"02 40 50 43 98","THEME":12,"COMMUNE":"NANTES","LIBCATEGORIE":"Vie associative","ADRESSE":"35 Boulevard Louis Millet","LIBTYPE":"Salle associative","_IDOBJ":1500,"TYPE":120503,"CATEGORIE":1205},"geometry":{"type":"Point","coordinates":[-1.51890592668631,47.2273398235838]}},{"type":"Feature","properties":{"geo":{"name":"Pôle associatif Charles Perron"},"_l":[47.225060820897,-1.60167606693221],"LIBTHEME":"VIE SOCIALE","CODE_POSTAL":44100,"WEB":null,"STATUT":null,"TELEPHONE":null,"THEME":12,"COMMUNE":"NANTES","LIBCATEGORIE":"Vie associative","ADRESSE":"18 Rue Claude Lorrain","LIBTYPE":"Pôle associatif","_IDOBJ":1561,"TYPE":120502,"CATEGORIE":1205},"geometry":{"type":"Point","coordinates":[-1.60167606693221,47.225060820897]}},{"type":"Feature","properties":{"geo":{"name":"Relais Accueil Petite Enfance Centre Sud"},"_l":[47.2176175176188,-1.55282506215827],"LIBTHEME":"VIE SOCIALE","CODE_POSTAL":44000,"WEB":null,"STATUT":"Municipal","TELEPHONE":"02 40 41 95 80","THEME":12,"COMMUNE":"NANTES","LIBCATEGORIE":"Petite enfance","ADRESSE":"23 Rue de Strasbourg","LIBTYPE":"R.A.M.","_IDOBJ":1597,"TYPE":120102,"CATEGORIE":1201},"geometry":{"type":"Point","coordinates":[-1.55282506215827,47.2176175176188]}},{"type":"Feature","properties":{"geo":{"name":"Lieux Accueil  Enfants Parents La Perdriole"},"_l":[47.2453021186408,-1.52371871611606],"LIBTHEME":"VIE SOCIALE","CODE_POSTAL":44300,"WEB":null,"STATUT":"Municipal","TELEPHONE":"02 40 49 48 00","THEME":12,"COMMUNE":"NANTES","LIBCATEGORIE":"Petite enfance","ADRESSE":"29 Rue des Platanes","LIBTYPE":"Multi-accueil (Crèche)","_IDOBJ":1600,"TYPE":120101,"CATEGORIE":1201},"geometry":{"type":"Point","coordinates":[-1.52371871611606,47.2453021186408]}},{"type":"Feature","properties":{"geo":{"name":"Bibliothèque Universitaire Droit et de Sciences Economiques"},"_l":[47.2447625124448,-1.54921633928703],"LIBTHEME":"VIE SOCIALE","CODE_POSTAL":44300,"WEB":"www.bu.univ-nantes.fr","STATUT":null,"TELEPHONE":"02 40 14 14 70","THEME":12,"COMMUNE":"NANTES","LIBCATEGORIE":"Etudiant","ADRESSE":"8 Chemin de la Censive du Tertre","LIBTYPE":"Bibliothèque universitaire","_IDOBJ":1604,"TYPE":120301,"CATEGORIE":1203},"geometry":{"type":"Point","coordinates":[-1.54921633928703,47.2447625124448]}},{"type":"Feature","properties":{"geo":{"name":"Bibliothèque Universitaire  Lettres et Sciences Humaines"},"_l":[47.2453898888945,-1.54985340335468],"LIBTHEME":"VIE SOCIALE","CODE_POSTAL":44300,"WEB":"www.bu.univ-nantes.fr","STATUT":null,"TELEPHONE":"02 40 14 12 30","THEME":12,"COMMUNE":"NANTES","LIBCATEGORIE":"Etudiant","ADRESSE":"16 Chemin de la Censive du Tertre","LIBTYPE":"Bibliothèque universitaire","_IDOBJ":1605,"TYPE":120301,"CATEGORIE":1203},"geometry":{"type":"Point","coordinates":[-1.54985340335468,47.2453898888945]}},{"type":"Feature","properties":{"geo":{"name":"Bibliothèque Universitaire Santé"},"_l":[47.2114816359422,-1.55539171604295],"LIBTHEME":"VIE SOCIALE","CODE_POSTAL":44000,"WEB":"www.bu.univ-nantes.fr","STATUT":null,"TELEPHONE":"02 40 41 28 92","THEME":12,"COMMUNE":"NANTES","LIBCATEGORIE":"Etudiant","ADRESSE":"1 Rue Gaston Veil","LIBTYPE":"Bibliothèque universitaire","_IDOBJ":1606,"TYPE":120301,"CATEGORIE":1203},"geometry":{"type":"Point","coordinates":[-1.55539171604295,47.2114816359422]}},{"type":"Feature","properties":{"geo":{"name":"Domicile Collectif les Hauts de Chézine"},"_l":[47.2233929473347,-1.60004753152891],"LIBTHEME":"VIE SOCIALE","CODE_POSTAL":44100,"WEB":null,"STATUT":"Privé","TELEPHONE":"02 40 46 68 74","THEME":12,"COMMUNE":"NANTES","LIBCATEGORIE":"Personne agée","ADRESSE":"16 Rue Jean Baptiste Chardin","LIBTYPE":"Logement","_IDOBJ":1647,"TYPE":120402,"CATEGORIE":1204},"geometry":{"type":"Point","coordinates":[-1.60004753152891,47.2233929473347]}},{"type":"Feature","properties":{"geo":{"name":"Pôle associatif Auvours"},"_l":[47.2213185184715,-1.56354400422419],"LIBTHEME":"VIE SOCIALE","CODE_POSTAL":44000,"WEB":null,"STATUT":null,"TELEPHONE":"02 40 89 37 90","THEME":12,"COMMUNE":"NANTES","LIBCATEGORIE":"Vie associative","ADRESSE":"1 Rue d'Auvours","LIBTYPE":"Pôle associatif","_IDOBJ":1685,"TYPE":120502,"CATEGORIE":1205},"geometry":{"type":"Point","coordinates":[-1.56354400422419,47.2213185184715]}},{"type":"Feature","properties":{"geo":{"name":"Ateliers et Chantiers de Nantes"},"_l":[47.2055890189103,-1.56611673592591],"LIBTHEME":"VIE SOCIALE","CODE_POSTAL":44200,"WEB":null,"STATUT":null,"TELEPHONE":"02 40 12 03 14","THEME":12,"COMMUNE":"NANTES","LIBCATEGORIE":"Vie associative","ADRESSE":"2B Boulevard Léon Bureau","LIBTYPE":"Pôle associatif","_IDOBJ":1686,"TYPE":120502,"CATEGORIE":1205},"geometry":{"type":"Point","coordinates":[-1.56611673592591,47.2055890189103]}},{"type":"Feature","properties":{"geo":{"name":"Pôle associatif Drac"},"_l":[47.2033122281463,-1.60471211219426],"LIBTHEME":"VIE SOCIALE","CODE_POSTAL":44100,"WEB":null,"STATUT":null,"TELEPHONE":"02 40 48 08 61","THEME":12,"COMMUNE":"NANTES","LIBCATEGORIE":"Vie associative","ADRESSE":"15D Boulevard Jean Moulin","LIBTYPE":"Pôle associatif","_IDOBJ":1693,"TYPE":120502,"CATEGORIE":1205},"geometry":{"type":"Point","coordinates":[-1.60471211219426,47.2033122281463]}},{"type":"Feature","properties":{"geo":{"name":"Pôle associatif Coudray"},"_l":[47.2332402692415,-1.54310305387261],"LIBTHEME":"VIE SOCIALE","CODE_POSTAL":44000,"WEB":null,"STATUT":null,"TELEPHONE":"02 40 93 00 32","THEME":12,"COMMUNE":"NANTES","LIBCATEGORIE":"Vie associative","ADRESSE":"20 Rue du Coudray","LIBTYPE":"Pôle associatif","_IDOBJ":1694,"TYPE":120502,"CATEGORIE":1205},"geometry":{"type":"Point","coordinates":[-1.54310305387261,47.2332402692415]}},{"type":"Feature","properties":{"geo":{"name":"Salle municipale Santos Dumont"},"_l":[47.2600721458681,-1.5672607889284],"LIBTHEME":"VIE SOCIALE","CODE_POSTAL":44300,"WEB":"www.nantes.fr","STATUT":null,"TELEPHONE":"02 40 59 09 53","THEME":12,"COMMUNE":"NANTES","LIBCATEGORIE":"Vie associative","ADRESSE":"11 Rue Santos Dumont","LIBTYPE":"Salle associative","_IDOBJ":1700,"TYPE":120503,"CATEGORIE":1205},"geometry":{"type":"Point","coordinates":[-1.5672607889284,47.2600721458681]}},{"type":"Feature","properties":{"geo":{"name":"Salle municipale des Alouettes"},